{
  "generated_at": "2026-07-24T14:23:26.683752",
  "total": 808,
  "mode": "live",
  "districts": [
    {
      "district": "Bomdila",
      "state": "Arunachal Pradesh",
      "lat": 27.2645,
      "lon": 92.4159,
      "temperature": 12.7,
      "feels_like": 12.6,
      "humidity": 98,
      "wind_kmh": 2.8,
      "rain_1h": 0.54,
      "condition": "Rain",
      "description": "light rain",
      "fetched_at": "2026-07-24 14:19",
      "risk_score": 1.0,
      "risk_level": "LOW",
      "alerts": [
        "💧 Flood conditions likely (98%)"
      ]
    },
    {
      "district": "Ziro",
      "state": "Arunachal Pradesh",
      "lat": 27.5481,
      "lon": 93.8294,
      "temperature": 18.8,
      "feels_like": 19.2,
      "humidity": 97,
      "wind_kmh": 4.7,
      "rain_1h": 0.6,
      "condition": "Rain",
      "description": "light rain",
      "fetched_at": "2026-07-24 14:19",
      "risk_score": 1.0,
      "risk_level": "LOW",
      "alerts": [
        "💧 Flood conditions likely (97%)"
      ]
    },
    {
      "district": "Along",
      "state": "Arunachal Pradesh",
      "lat": 28.1667,
      "lon": 94.8,
      "temperature": 24.2,
      "feels_like": 25.2,
      "humidity": 97,
      "wind_kmh": 2.3,
      "rain_1h": 1.4,
      "condition": "Rain",
      "description": "moderate rain",
      "fetched_at": "2026-07-24 14:19",
      "risk_score": 1.0,
      "risk_level": "LOW",
      "alerts": [
        "💧 Flood conditions likely (97%)"
      ]
    },
    {
      "district": "Khonsa",
      "state": "Arunachal Pradesh",
      "lat": 27.0167,
      "lon": 95.5167,
      "temperature": 23.4,
      "feels_like": 24.4,
      "humidity": 99,
      "wind_kmh": 6.3,
      "rain_1h": 2.58,
      "condition": "Rain",
      "description": "moderate rain",
      "fetched_at": "2026-07-24 14:19",
      "risk_score": 1.0,
      "risk_level": "LOW",
      "alerts": [
        "💧 Flood conditions likely (99%)"
      ]
    },
    {
      "district": "Changlang",
      "state": "Arunachal Pradesh",
      "lat": 27.1167,
      "lon": 95.75,
      "temperature": 23.6,
      "feels_like": 24.6,
      "humidity": 99,
      "wind_kmh": 5.3,
      "rain_1h": 1.24,
      "condition": "Rain",
      "description": "moderate rain",
      "fetched_at": "2026-07-24 14:19",
      "risk_score": 1.0,
      "risk_level": "LOW",
      "alerts": [
        "💧 Flood conditions likely (99%)"
      ]
    },
    {
      "district": "Guwahati",
      "state": "Assam",
      "lat": 26.1445,
      "lon": 91.7362,
      "temperature": 25.6,
      "feels_like": 26.6,
      "humidity": 92,
      "wind_kmh": 4.8,
      "rain_1h": 2.67,
      "condition": "Rain",
      "description": "moderate rain",
      "fetched_at": "2026-07-24 14:19",
      "risk_score": 1.0,
      "risk_level": "LOW",
      "alerts": [
        "💧 Flood conditions likely (92%)"
      ]
    },
    {
      "district": "Karimganj",
      "state": "Assam",
      "lat": 24.8647,
      "lon": 92.3552,
      "temperature": 26.0,
      "feels_like": 26.0,
      "humidity": 91,
      "wind_kmh": 4.9,
      "rain_1h": 0.68,
      "condition": "Rain",
      "description": "light rain",
      "fetched_at": "2026-07-24 14:19",
      "risk_score": 1.0,
      "risk_level": "LOW",
      "alerts": [
        "💧 Flood conditions likely (91%)"
      ]
    },
    {
      "district": "Hailakandi",
      "state": "Assam",
      "lat": 24.6819,
      "lon": 92.5664,
      "temperature": 26.0,
      "feels_like": 26.0,
      "humidity": 91,
      "wind_kmh": 5.4,
      "rain_1h": 0.37,
      "condition": "Rain",
      "description": "light rain",
      "fetched_at": "2026-07-24 14:19",
      "risk_score": 1.0,
      "risk_level": "LOW",
      "alerts": [
        "💧 Flood conditions likely (91%)"
      ]
    },
    {
      "district": "Surat",
      "state": "Gujarat",
      "lat": 21.1702,
      "lon": 72.8311,
      "temperature": 25.4,
      "feels_like": 26.3,
      "humidity": 90,
      "wind_kmh": 24.2,
      "rain_1h": 0.71,
      "condition": "Rain",
      "description": "light rain",
      "fetched_at": "2026-07-24 14:19",
      "risk_score": 1.0,
      "risk_level": "LOW",
      "alerts": [
        "💧 Flood conditions likely (90%)"
      ]
    },
    {
      "district": "Vadodara",
      "state": "Gujarat",
      "lat": 22.3072,
      "lon": 73.1812,
      "temperature": 24.6,
      "feels_like": 25.5,
      "humidity": 92,
      "wind_kmh": 30.1,
      "rain_1h": 2.89,
      "condition": "Rain",
      "description": "moderate rain",
      "fetched_at": "2026-07-24 14:19",
      "risk_score": 1.0,
      "risk_level": "LOW",
      "alerts": [
        "💧 Flood conditions likely (92%)"
      ]
    },
    {
      "district": "Junagadh",
      "state": "Gujarat",
      "lat": 21.5222,
      "lon": 70.4579,
      "temperature": 26,
      "feels_like": 26,
      "humidity": 90,
      "wind_kmh": 17.1,
      "rain_1h": 0.76,
      "condition": "Rain",
      "description": "light rain",
      "fetched_at": "2026-07-24 14:19",
      "risk_score": 1.0,
      "risk_level": "LOW",
      "alerts": [
        "💧 Flood conditions likely (90%)"
      ]
    },
    {
      "district": "Gandhinagar",
      "state": "Gujarat",
      "lat": 23.2156,
      "lon": 72.6369,
      "temperature": 25.7,
      "feels_like": 26.8,
      "humidity": 93,
      "wind_kmh": 13.9,
      "rain_1h": 0.82,
      "condition": "Rain",
      "description": "light rain",
      "fetched_at": "2026-07-24 14:19",
      "risk_score": 1.0,
      "risk_level": "LOW",
      "alerts": [
        "💧 Flood conditions likely (93%)"
      ]
    },
    {
      "district": "Anand",
      "state": "Gujarat",
      "lat": 22.5645,
      "lon": 72.9289,
      "temperature": 24.7,
      "feels_like": 25.7,
      "humidity": 94,
      "wind_kmh": 28.8,
      "rain_1h": 1.9,
      "condition": "Rain",
      "description": "moderate rain",
      "fetched_at": "2026-07-24 14:19",
      "risk_score": 1.0,
      "risk_level": "LOW",
      "alerts": [
        "💧 Flood conditions likely (94%)"
      ]
    },
    {
      "district": "Mehsana",
      "state": "Gujarat",
      "lat": 23.588,
      "lon": 72.3693,
      "temperature": 25.9,
      "feels_like": 27.0,
      "humidity": 94,
      "wind_kmh": 16.1,
      "rain_1h": 1.33,
      "condition": "Rain",
      "description": "moderate rain",
      "fetched_at": "2026-07-24 14:19",
      "risk_score": 1.0,
      "risk_level": "LOW",
      "alerts": [
        "💧 Flood conditions likely (94%)"
      ]
    },
    {
      "district": "Bharuch",
      "state": "Gujarat",
      "lat": 21.7051,
      "lon": 72.9959,
      "temperature": 24.7,
      "feels_like": 25.7,
      "humidity": 94,
      "wind_kmh": 24.3,
      "rain_1h": 2.48,
      "condition": "Rain",
      "description": "moderate rain",
      "fetched_at": "2026-07-24 14:19",
      "risk_score": 1.0,
      "risk_level": "LOW",
      "alerts": [
        "💧 Flood conditions likely (94%)"
      ]
    },
    {
      "district": "Amreli",
      "state": "Gujarat",
      "lat": 21.6048,
      "lon": 71.2206,
      "temperature": 25.7,
      "feels_like": 26.6,
      "humidity": 90,
      "wind_kmh": 27.8,
      "rain_1h": 1.05,
      "condition": "Rain",
      "description": "moderate rain",
      "fetched_at": "2026-07-24 14:19",
      "risk_score": 1.0,
      "risk_level": "LOW",
      "alerts": [
        "💧 Flood conditions likely (90%)"
      ]
    },
    {
      "district": "Patan",
      "state": "Gujarat",
      "lat": 23.85,
      "lon": 72.1167,
      "temperature": 26.0,
      "feels_like": 26.0,
      "humidity": 94,
      "wind_kmh": 22.9,
      "rain_1h": 4.21,
      "condition": "Rain",
      "description": "heavy intensity rain",
      "fetched_at": "2026-07-24 14:19",
      "risk_score": 1.0,
      "risk_level": "LOW",
      "alerts": [
        "💧 Flood conditions likely (94%)"
      ]
    },
    {
      "district": "Shimla",
      "state": "Himachal Pradesh",
      "lat": 31.1048,
      "lon": 77.1734,
      "temperature": 18.5,
      "feels_like": 18.8,
      "humidity": 91,
      "wind_kmh": 5.7,
      "rain_1h": 0.29,
      "condition": "Rain",
      "description": "light rain",
      "fetched_at": "2026-07-24 14:19",
      "risk_score": 1.0,
      "risk_level": "LOW",
      "alerts": [
        "💧 Flood conditions likely (91%)"
      ]
    },
    {
      "district": "Dharamsala",
      "state": "Himachal Pradesh",
      "lat": 32.219,
      "lon": 76.3234,
      "temperature": 21.1,
      "feels_like": 21.6,
      "humidity": 91,
      "wind_kmh": 0.1,
      "rain_1h": 0.11,
      "condition": "Rain",
      "description": "light rain",
      "fetched_at": "2026-07-24 14:19",
      "risk_score": 1.0,
      "risk_level": "LOW",
      "alerts": [
        "💧 Flood conditions likely (91%)"
      ]
    },
    {
      "district": "Kullu",
      "state": "Himachal Pradesh",
      "lat": 31.9592,
      "lon": 77.1089,
      "temperature": 16.6,
      "feels_like": 16.8,
      "humidity": 95,
      "wind_kmh": 0.6,
      "rain_1h": 0.12,
      "condition": "Rain",
      "description": "light rain",
      "fetched_at": "2026-07-24 14:20",
      "risk_score": 1.0,
      "risk_level": "LOW",
      "alerts": [
        "💧 Flood conditions likely (95%)"
      ]
    },
    {
      "district": "Chamba",
      "state": "Himachal Pradesh",
      "lat": 32.5531,
      "lon": 76.1257,
      "temperature": 25.9,
      "feels_like": 26.9,
      "humidity": 90,
      "wind_kmh": 1.0,
      "rain_1h": 0.12,
      "condition": "Rain",
      "description": "light rain",
      "fetched_at": "2026-07-24 14:20",
      "risk_score": 1.0,
      "risk_level": "LOW",
      "alerts": [
        "💧 Flood conditions likely (90%)"
      ]
    },
    {
      "district": "Nashik",
      "state": "Maharashtra",
      "lat": 19.9975,
      "lon": 73.7898,
      "temperature": 22.8,
      "feels_like": 23.5,
      "humidity": 92,
      "wind_kmh": 27.9,
      "rain_1h": 0.22,
      "condition": "Rain",
      "description": "light rain",
      "fetched_at": "2026-07-24 14:20",
      "risk_score": 1.0,
      "risk_level": "LOW",
      "alerts": [
        "💧 Flood conditions likely (92%)"
      ]
    },
    {
      "district": "Tura",
      "state": "Meghalaya",
      "lat": 25.5167,
      "lon": 90.2,
      "temperature": 25.3,
      "feels_like": 26.2,
      "humidity": 91,
      "wind_kmh": 9.1,
      "rain_1h": 2.73,
      "condition": "Rain",
      "description": "moderate rain",
      "fetched_at": "2026-07-24 14:20",
      "risk_score": 1.0,
      "risk_level": "LOW",
      "alerts": [
        "💧 Flood conditions likely (91%)"
      ]
    },
    {
      "district": "Nongpoh",
      "state": "Meghalaya",
      "lat": 25.9,
      "lon": 91.87,
      "temperature": 22.4,
      "feels_like": 23.2,
      "humidity": 97,
      "wind_kmh": 4.2,
      "rain_1h": 0.92,
      "condition": "Rain",
      "description": "light rain",
      "fetched_at": "2026-07-24 14:20",
      "risk_score": 1.0,
      "risk_level": "LOW",
      "alerts": [
        "💧 Flood conditions likely (97%)"
      ]
    },
    {
      "district": "Baghmara",
      "state": "Meghalaya",
      "lat": 25.2,
      "lon": 90.6333,
      "temperature": 25.3,
      "feels_like": 26.3,
      "humidity": 92,
      "wind_kmh": 6.0,
      "rain_1h": 0.15,
      "condition": "Rain",
      "description": "light rain",
      "fetched_at": "2026-07-24 14:20",
      "risk_score": 1.0,
      "risk_level": "LOW",
      "alerts": [
        "💧 Flood conditions likely (92%)"
      ]
    },
    {
      "district": "Mokokchung",
      "state": "Nagaland",
      "lat": 26.326,
      "lon": 94.52,
      "temperature": 22.2,
      "feels_like": 23.1,
      "humidity": 98,
      "wind_kmh": 5.0,
      "rain_1h": 0.21,
      "condition": "Rain",
      "description": "light rain",
      "fetched_at": "2026-07-24 14:20",
      "risk_score": 1.0,
      "risk_level": "LOW",
      "alerts": [
        "💧 Flood conditions likely (98%)"
      ]
    },
    {
      "district": "Wokha",
      "state": "Nagaland",
      "lat": 26.1,
      "lon": 94.2667,
      "temperature": 18.9,
      "feels_like": 19.5,
      "humidity": 98,
      "wind_kmh": 5.3,
      "rain_1h": 0.11,
      "condition": "Rain",
      "description": "light rain",
      "fetched_at": "2026-07-24 14:20",
      "risk_score": 1.0,
      "risk_level": "LOW",
      "alerts": [
        "💧 Flood conditions likely (98%)"
      ]
    },
    {
      "district": "Kendujhar",
      "state": "Odisha",
      "lat": 21.6274,
      "lon": 85.5812,
      "temperature": 23.6,
      "feels_like": 24.4,
      "humidity": 91,
      "wind_kmh": 6.3,
      "rain_1h": 0.65,
      "condition": "Rain",
      "description": "light rain",
      "fetched_at": "2026-07-24 14:20",
      "risk_score": 1.0,
      "risk_level": "LOW",
      "alerts": [
        "💧 Flood conditions likely (91%)"
      ]
    },
    {
      "district": "Gangtok",
      "state": "Sikkim",
      "lat": 27.3314,
      "lon": 88.6138,
      "temperature": 21.8,
      "feels_like": 22.5,
      "humidity": 97,
      "wind_kmh": 1.1,
      "rain_1h": 0.12,
      "condition": "Rain",
      "description": "light rain",
      "fetched_at": "2026-07-24 14:20",
      "risk_score": 1.0,
      "risk_level": "LOW",
      "alerts": [
        "💧 Flood conditions likely (97%)"
      ]
    },
    {
      "district": "Mangan",
      "state": "Sikkim",
      "lat": 27.51,
      "lon": 88.52,
      "temperature": 21.6,
      "feels_like": 22.3,
      "humidity": 96,
      "wind_kmh": 1.4,
      "rain_1h": 0.39,
      "condition": "Rain",
      "description": "light rain",
      "fetched_at": "2026-07-24 14:20",
      "risk_score": 1.0,
      "risk_level": "LOW",
      "alerts": [
        "💧 Flood conditions likely (96%)"
      ]
    },
    {
      "district": "Pithoragarh",
      "state": "Uttarakhand",
      "lat": 29.5827,
      "lon": 80.218,
      "temperature": 18.1,
      "feels_like": 18.3,
      "humidity": 90,
      "wind_kmh": 7.5,
      "rain_1h": 0.94,
      "condition": "Rain",
      "description": "light rain",
      "fetched_at": "2026-07-24 14:21",
      "risk_score": 1.0,
      "risk_level": "LOW",
      "alerts": [
        "💧 Flood conditions likely (90%)"
      ]
    },
    {
      "district": "Almora",
      "state": "Uttarakhand",
      "lat": 29.5971,
      "lon": 79.6591,
      "temperature": 21.6,
      "feels_like": 22.3,
      "humidity": 93,
      "wind_kmh": 7.0,
      "rain_1h": 0.29,
      "condition": "Rain",
      "description": "light rain",
      "fetched_at": "2026-07-24 14:21",
      "risk_score": 1.0,
      "risk_level": "LOW",
      "alerts": [
        "💧 Flood conditions likely (93%)"
      ]
    },
    {
      "district": "Tehri",
      "state": "Uttarakhand",
      "lat": 30.378,
      "lon": 78.48,
      "temperature": 22.7,
      "feels_like": 23.3,
      "humidity": 90,
      "wind_kmh": 3.7,
      "rain_1h": 1.09,
      "condition": "Rain",
      "description": "moderate rain",
      "fetched_at": "2026-07-24 14:21",
      "risk_score": 1.0,
      "risk_level": "LOW",
      "alerts": [
        "💧 Flood conditions likely (90%)"
      ]
    },
    {
      "district": "Chamoli",
      "state": "Uttarakhand",
      "lat": 30.4059,
      "lon": 79.32,
      "temperature": 24.1,
      "feels_like": 25.0,
      "humidity": 91,
      "wind_kmh": 2.4,
      "rain_1h": 1.75,
      "condition": "Rain",
      "description": "moderate rain",
      "fetched_at": "2026-07-24 14:21",
      "risk_score": 1.0,
      "risk_level": "LOW",
      "alerts": [
        "💧 Flood conditions likely (91%)"
      ]
    },
    {
      "district": "Anjaw",
      "state": "Arunachal Pradesh",
      "lat": 28.0667,
      "lon": 96.85,
      "temperature": 15.3,
      "feels_like": 15.4,
      "humidity": 96,
      "wind_kmh": 2.2,
      "rain_1h": 0.15,
      "condition": "Rain",
      "description": "light rain",
      "fetched_at": "2026-07-24 14:21",
      "risk_score": 1.0,
      "risk_level": "LOW",
      "alerts": [
        "💧 Flood conditions likely (96%)"
      ]
    },
    {
      "district": "Dibang Valley",
      "state": "Arunachal Pradesh",
      "lat": 28.5,
      "lon": 95.8333,
      "temperature": 22.9,
      "feels_like": 23.8,
      "humidity": 99,
      "wind_kmh": 1.7,
      "rain_1h": 0.54,
      "condition": "Rain",
      "description": "light rain",
      "fetched_at": "2026-07-24 14:21",
      "risk_score": 1.0,
      "risk_level": "LOW",
      "alerts": [
        "💧 Flood conditions likely (99%)"
      ]
    },
    {
      "district": "Kra Daadi",
      "state": "Arunachal Pradesh",
      "lat": 27.8,
      "lon": 93.3,
      "temperature": 10.8,
      "feels_like": 10.5,
      "humidity": 99,
      "wind_kmh": 5.8,
      "rain_1h": 0.33,
      "condition": "Rain",
      "description": "light rain",
      "fetched_at": "2026-07-24 14:21",
      "risk_score": 1.0,
      "risk_level": "LOW",
      "alerts": [
        "💧 Flood conditions likely (99%)"
      ]
    },
    {
      "district": "Kurung Kumey",
      "state": "Arunachal Pradesh",
      "lat": 27.9167,
      "lon": 93.3833,
      "temperature": 16.6,
      "feels_like": 16.9,
      "humidity": 97,
      "wind_kmh": 5.5,
      "rain_1h": 0.52,
      "condition": "Rain",
      "description": "light rain",
      "fetched_at": "2026-07-24 14:21",
      "risk_score": 1.0,
      "risk_level": "LOW",
      "alerts": [
        "💧 Flood conditions likely (97%)"
      ]
    },
    {
      "district": "Lepa Rada",
      "state": "Arunachal Pradesh",
      "lat": 27.95,
      "lon": 94.45,
      "temperature": 23.6,
      "feels_like": 24.6,
      "humidity": 99,
      "wind_kmh": 2.1,
      "rain_1h": 0.74,
      "condition": "Rain",
      "description": "light rain",
      "fetched_at": "2026-07-24 14:21",
      "risk_score": 1.0,
      "risk_level": "LOW",
      "alerts": [
        "💧 Flood conditions likely (99%)"
      ]
    },
    {
      "district": "Longding",
      "state": "Arunachal Pradesh",
      "lat": 26.9333,
      "lon": 95.65,
      "temperature": 18.7,
      "feels_like": 19.2,
      "humidity": 99,
      "wind_kmh": 3.8,
      "rain_1h": 1.84,
      "condition": "Rain",
      "description": "moderate rain",
      "fetched_at": "2026-07-24 14:21",
      "risk_score": 1.0,
      "risk_level": "LOW",
      "alerts": [
        "💧 Flood conditions likely (99%)"
      ]
    },
    {
      "district": "Lower Siang",
      "state": "Arunachal Pradesh",
      "lat": 28.1667,
      "lon": 94.5,
      "temperature": 16.2,
      "feels_like": 16.4,
      "humidity": 98,
      "wind_kmh": 2.2,
      "rain_1h": 0.52,
      "condition": "Rain",
      "description": "light rain",
      "fetched_at": "2026-07-24 14:21",
      "risk_score": 1.0,
      "risk_level": "LOW",
      "alerts": [
        "💧 Flood conditions likely (98%)"
      ]
    },
    {
      "district": "Lower Subansiri",
      "state": "Arunachal Pradesh",
      "lat": 27.3333,
      "lon": 93.8333,
      "temperature": 24.2,
      "feels_like": 25.2,
      "humidity": 94,
      "wind_kmh": 3.4,
      "rain_1h": 0.11,
      "condition": "Rain",
      "description": "light rain",
      "fetched_at": "2026-07-24 14:21",
      "risk_score": 1.0,
      "risk_level": "LOW",
      "alerts": [
        "💧 Flood conditions likely (94%)"
      ]
    },
    {
      "district": "Namsai",
      "state": "Arunachal Pradesh",
      "lat": 27.6667,
      "lon": 95.8333,
      "temperature": 25.9,
      "feels_like": 25.9,
      "humidity": 94,
      "wind_kmh": 4.3,
      "rain_1h": 0.25,
      "condition": "Rain",
      "description": "light rain",
      "fetched_at": "2026-07-24 14:21",
      "risk_score": 1.0,
      "risk_level": "LOW",
      "alerts": [
        "💧 Flood conditions likely (94%)"
      ]
    },
    {
      "district": "Shi Yomi",
      "state": "Arunachal Pradesh",
      "lat": 28.5,
      "lon": 94.5,
      "temperature": 23.4,
      "feels_like": 24.4,
      "humidity": 99,
      "wind_kmh": 1.2,
      "rain_1h": 0.24,
      "condition": "Rain",
      "description": "light rain",
      "fetched_at": "2026-07-24 14:21",
      "risk_score": 1.0,
      "risk_level": "LOW",
      "alerts": [
        "💧 Flood conditions likely (99%)"
      ]
    },
    {
      "district": "Tirap",
      "state": "Arunachal Pradesh",
      "lat": 26.9333,
      "lon": 95.4333,
      "temperature": 20.5,
      "feels_like": 21.2,
      "humidity": 98,
      "wind_kmh": 6.2,
      "rain_1h": 2.03,
      "condition": "Rain",
      "description": "moderate rain",
      "fetched_at": "2026-07-24 14:21",
      "risk_score": 1.0,
      "risk_level": "LOW",
      "alerts": [
        "💧 Flood conditions likely (98%)"
      ]
    },
    {
      "district": "Upper Subansiri",
      "state": "Arunachal Pradesh",
      "lat": 28.0,
      "lon": 94.0,
      "temperature": 22.3,
      "feels_like": 23.1,
      "humidity": 99,
      "wind_kmh": 2.5,
      "rain_1h": 0.98,
      "condition": "Rain",
      "description": "light rain",
      "fetched_at": "2026-07-24 14:21",
      "risk_score": 1.0,
      "risk_level": "LOW",
      "alerts": [
        "💧 Flood conditions likely (99%)"
      ]
    },
    {
      "district": "West Kameng",
      "state": "Arunachal Pradesh",
      "lat": 27.2667,
      "lon": 92.5,
      "temperature": 17.3,
      "feels_like": 17.6,
      "humidity": 98,
      "wind_kmh": 2.3,
      "rain_1h": 0.58,
      "condition": "Rain",
      "description": "light rain",
      "fetched_at": "2026-07-24 14:21",
      "risk_score": 1.0,
      "risk_level": "LOW",
      "alerts": [
        "💧 Flood conditions likely (98%)"
      ]
    },
    {
      "district": "West Siang",
      "state": "Arunachal Pradesh",
      "lat": 28.1667,
      "lon": 94.8333,
      "temperature": 24.7,
      "feels_like": 25.8,
      "humidity": 98,
      "wind_kmh": 2.8,
      "rain_1h": 1.28,
      "condition": "Rain",
      "description": "moderate rain",
      "fetched_at": "2026-07-24 14:21",
      "risk_score": 1.0,
      "risk_level": "LOW",
      "alerts": [
        "💧 Flood conditions likely (98%)"
      ]
    },
    {
      "district": "Baksa",
      "state": "Assam",
      "lat": 26.6833,
      "lon": 91.2667,
      "temperature": 26.5,
      "feels_like": 26.5,
      "humidity": 93,
      "wind_kmh": 6.3,
      "rain_1h": 1.46,
      "condition": "Rain",
      "description": "moderate rain",
      "fetched_at": "2026-07-24 14:21",
      "risk_score": 1.0,
      "risk_level": "LOW",
      "alerts": [
        "💧 Flood conditions likely (93%)"
      ]
    },
    {
      "district": "Bijapur",
      "state": "Chhattisgarh",
      "lat": 18.8333,
      "lon": 80.8167,
      "temperature": 24.4,
      "feels_like": 25.2,
      "humidity": 91,
      "wind_kmh": 2.8,
      "rain_1h": 0.96,
      "condition": "Rain",
      "description": "light rain",
      "fetched_at": "2026-07-24 14:21",
      "risk_score": 1.0,
      "risk_level": "LOW",
      "alerts": [
        "💧 Flood conditions likely (91%)"
      ]
    },
    {
      "district": "Jashpur",
      "state": "Chhattisgarh",
      "lat": 22.8833,
      "lon": 84.1333,
      "temperature": 23.2,
      "feels_like": 23.9,
      "humidity": 91,
      "wind_kmh": 6.3,
      "rain_1h": 1.65,
      "condition": "Rain",
      "description": "moderate rain",
      "fetched_at": "2026-07-24 14:21",
      "risk_score": 1.0,
      "risk_level": "LOW",
      "alerts": [
        "💧 Flood conditions likely (91%)"
      ]
    },
    {
      "district": "Banaskantha",
      "state": "Gujarat",
      "lat": 24.1667,
      "lon": 72.4333,
      "temperature": 25.4,
      "feels_like": 26.5,
      "humidity": 96,
      "wind_kmh": 17.7,
      "rain_1h": 3.16,
      "condition": "Rain",
      "description": "moderate rain",
      "fetched_at": "2026-07-24 14:21",
      "risk_score": 1.0,
      "risk_level": "LOW",
      "alerts": [
        "💧 Flood conditions likely (96%)"
      ]
    },
    {
      "district": "Chhota Udaipur",
      "state": "Gujarat",
      "lat": 22.3,
      "lon": 74.0167,
      "temperature": 24.4,
      "feels_like": 25.3,
      "humidity": 94,
      "wind_kmh": 24.1,
      "rain_1h": 1.09,
      "condition": "Rain",
      "description": "moderate rain",
      "fetched_at": "2026-07-24 14:21",
      "risk_score": 1.0,
      "risk_level": "LOW",
      "alerts": [
        "💧 Flood conditions likely (94%)"
      ]
    },
    {
      "district": "Kheda",
      "state": "Gujarat",
      "lat": 22.75,
      "lon": 72.6833,
      "temperature": 25.4,
      "feels_like": 26.5,
      "humidity": 93,
      "wind_kmh": 24.0,
      "rain_1h": 2.5,
      "condition": "Rain",
      "description": "moderate rain",
      "fetched_at": "2026-07-24 14:21",
      "risk_score": 1.0,
      "risk_level": "LOW",
      "alerts": [
        "💧 Flood conditions likely (93%)"
      ]
    },
    {
      "district": "Narmada",
      "state": "Gujarat",
      "lat": 21.8667,
      "lon": 73.5,
      "temperature": 24.5,
      "feels_like": 25.5,
      "humidity": 94,
      "wind_kmh": 23.1,
      "rain_1h": 1.4,
      "condition": "Rain",
      "description": "moderate rain",
      "fetched_at": "2026-07-24 14:21",
      "risk_score": 1.0,
      "risk_level": "LOW",
      "alerts": [
        "💧 Flood conditions likely (94%)"
      ]
    },
    {
      "district": "Tapi",
      "state": "Gujarat",
      "lat": 21.1,
      "lon": 73.4833,
      "temperature": 24.6,
      "feels_like": 25.5,
      "humidity": 93,
      "wind_kmh": 17.0,
      "rain_1h": 0.13,
      "condition": "Rain",
      "description": "light rain",
      "fetched_at": "2026-07-24 14:21",
      "risk_score": 1.0,
      "risk_level": "LOW",
      "alerts": [
        "💧 Flood conditions likely (93%)"
      ]
    },
    {
      "district": "Dahod",
      "state": "Gujarat",
      "lat": 22.8333,
      "lon": 74.25,
      "temperature": 24.3,
      "feels_like": 25.2,
      "humidity": 92,
      "wind_kmh": 21.7,
      "rain_1h": 0.35,
      "condition": "Rain",
      "description": "light rain",
      "fetched_at": "2026-07-24 14:21",
      "risk_score": 1.0,
      "risk_level": "LOW",
      "alerts": [
        "💧 Flood conditions likely (92%)"
      ]
    },
    {
      "district": "Panchmahals",
      "state": "Gujarat",
      "lat": 22.7667,
      "lon": 73.6167,
      "temperature": 24.2,
      "feels_like": 25.1,
      "humidity": 92,
      "wind_kmh": 24.7,
      "rain_1h": 0.4,
      "condition": "Rain",
      "description": "light rain",
      "fetched_at": "2026-07-24 14:21",
      "risk_score": 1.0,
      "risk_level": "LOW",
      "alerts": [
        "💧 Flood conditions likely (92%)"
      ]
    },
    {
      "district": "Uttara Kannada",
      "state": "Karnataka",
      "lat": 14.8333,
      "lon": 74.4167,
      "temperature": 25.3,
      "feels_like": 26.3,
      "humidity": 94,
      "wind_kmh": 4.4,
      "rain_1h": 0.22,
      "condition": "Rain",
      "description": "light rain",
      "fetched_at": "2026-07-24 14:22",
      "risk_score": 1.0,
      "risk_level": "LOW",
      "alerts": [
        "💧 Flood conditions likely (94%)"
      ]
    },
    {
      "district": "Betul",
      "state": "Madhya Pradesh",
      "lat": 21.9,
      "lon": 77.9,
      "temperature": 23.8,
      "feels_like": 24.6,
      "humidity": 91,
      "wind_kmh": 8.7,
      "rain_1h": 0.14,
      "condition": "Rain",
      "description": "light rain",
      "fetched_at": "2026-07-24 14:22",
      "risk_score": 1.0,
      "risk_level": "LOW",
      "alerts": [
        "💧 Flood conditions likely (91%)"
      ]
    },
    {
      "district": "Dindori",
      "state": "Madhya Pradesh",
      "lat": 22.95,
      "lon": 81.0833,
      "temperature": 24.3,
      "feels_like": 25.2,
      "humidity": 92,
      "wind_kmh": 11.8,
      "rain_1h": 0.41,
      "condition": "Rain",
      "description": "light rain",
      "fetched_at": "2026-07-24 14:22",
      "risk_score": 1.0,
      "risk_level": "LOW",
      "alerts": [
        "💧 Flood conditions likely (92%)"
      ]
    },
    {
      "district": "Umaria",
      "state": "Madhya Pradesh",
      "lat": 23.5333,
      "lon": 80.8333,
      "temperature": 25.2,
      "feels_like": 26.1,
      "humidity": 90,
      "wind_kmh": 8.8,
      "rain_1h": 2.05,
      "condition": "Rain",
      "description": "moderate rain",
      "fetched_at": "2026-07-24 14:22",
      "risk_score": 1.0,
      "risk_level": "LOW",
      "alerts": [
        "💧 Flood conditions likely (90%)"
      ]
    },
    {
      "district": "Jiribam",
      "state": "Manipur",
      "lat": 24.8,
      "lon": 93.1167,
      "temperature": 25.4,
      "feels_like": 26.5,
      "humidity": 96,
      "wind_kmh": 2.3,
      "rain_1h": 0.73,
      "condition": "Rain",
      "description": "light rain",
      "fetched_at": "2026-07-24 14:22",
      "risk_score": 1.0,
      "risk_level": "LOW",
      "alerts": [
        "💧 Flood conditions likely (96%)"
      ]
    },
    {
      "district": "East Garo Hills",
      "state": "Meghalaya",
      "lat": 25.5,
      "lon": 90.7167,
      "temperature": 24.1,
      "feels_like": 25.1,
      "humidity": 98,
      "wind_kmh": 4.2,
      "rain_1h": 1,
      "condition": "Rain",
      "description": "light rain",
      "fetched_at": "2026-07-24 14:22",
      "risk_score": 1.0,
      "risk_level": "LOW",
      "alerts": [
        "💧 Flood conditions likely (98%)"
      ]
    },
    {
      "district": "North Garo Hills",
      "state": "Meghalaya",
      "lat": 25.7167,
      "lon": 90.4167,
      "temperature": 24.4,
      "feels_like": 25.3,
      "humidity": 93,
      "wind_kmh": 6.3,
      "rain_1h": 0.1,
      "condition": "Rain",
      "description": "light rain",
      "fetched_at": "2026-07-24 14:22",
      "risk_score": 1.0,
      "risk_level": "LOW",
      "alerts": [
        "💧 Flood conditions likely (93%)"
      ]
    },
    {
      "district": "Ri Bhoi",
      "state": "Meghalaya",
      "lat": 25.8333,
      "lon": 91.8333,
      "temperature": 22.5,
      "feels_like": 23.4,
      "humidity": 97,
      "wind_kmh": 3.7,
      "rain_1h": 0.62,
      "condition": "Rain",
      "description": "light rain",
      "fetched_at": "2026-07-24 14:22",
      "risk_score": 1.0,
      "risk_level": "LOW",
      "alerts": [
        "💧 Flood conditions likely (97%)"
      ]
    },
    {
      "district": "South Garo Hills",
      "state": "Meghalaya",
      "lat": 25.2667,
      "lon": 90.5,
      "temperature": 25.7,
      "feels_like": 26.8,
      "humidity": 93,
      "wind_kmh": 5.4,
      "rain_1h": 0.34,
      "condition": "Rain",
      "description": "light rain",
      "fetched_at": "2026-07-24 14:22",
      "risk_score": 1.0,
      "risk_level": "LOW",
      "alerts": [
        "💧 Flood conditions likely (93%)"
      ]
    },
    {
      "district": "South West Khasi Hills",
      "state": "Meghalaya",
      "lat": 25.2333,
      "lon": 91.2833,
      "temperature": 22.9,
      "feels_like": 23.7,
      "humidity": 94,
      "wind_kmh": 5.4,
      "rain_1h": 0.21,
      "condition": "Rain",
      "description": "light rain",
      "fetched_at": "2026-07-24 14:22",
      "risk_score": 1.0,
      "risk_level": "LOW",
      "alerts": [
        "💧 Flood conditions likely (94%)"
      ]
    },
    {
      "district": "West Garo Hills",
      "state": "Meghalaya",
      "lat": 25.5167,
      "lon": 90.2,
      "temperature": 25.3,
      "feels_like": 26.2,
      "humidity": 91,
      "wind_kmh": 9.1,
      "rain_1h": 2.73,
      "condition": "Rain",
      "description": "moderate rain",
      "fetched_at": "2026-07-24 14:22",
      "risk_score": 1.0,
      "risk_level": "LOW",
      "alerts": [
        "💧 Flood conditions likely (91%)"
      ]
    },
    {
      "district": "Mamit",
      "state": "Mizoram",
      "lat": 23.9167,
      "lon": 92.4833,
      "temperature": 22.6,
      "feels_like": 23.5,
      "humidity": 97,
      "wind_kmh": 7.2,
      "rain_1h": 0.16,
      "condition": "Rain",
      "description": "light rain",
      "fetched_at": "2026-07-24 14:22",
      "risk_score": 1.0,
      "risk_level": "LOW",
      "alerts": [
        "💧 Flood conditions likely (97%)"
      ]
    },
    {
      "district": "Serchhip",
      "state": "Mizoram",
      "lat": 23.3,
      "lon": 92.8333,
      "temperature": 22.6,
      "feels_like": 23.5,
      "humidity": 100,
      "wind_kmh": 1.9,
      "rain_1h": 0.24,
      "condition": "Rain",
      "description": "light rain",
      "fetched_at": "2026-07-24 14:22",
      "risk_score": 1.0,
      "risk_level": "LOW",
      "alerts": [
        "💧 Flood conditions likely (100%)"
      ]
    },
    {
      "district": "Chumoukedima",
      "state": "Nagaland",
      "lat": 25.7833,
      "lon": 93.7167,
      "temperature": 26,
      "feels_like": 26,
      "humidity": 93,
      "wind_kmh": 4.1,
      "rain_1h": 0.15,
      "condition": "Rain",
      "description": "light rain",
      "fetched_at": "2026-07-24 14:22",
      "risk_score": 1.0,
      "risk_level": "LOW",
      "alerts": [
        "💧 Flood conditions likely (93%)"
      ]
    },
    {
      "district": "Longleng",
      "state": "Nagaland",
      "lat": 26.5,
      "lon": 94.5833,
      "temperature": 24.5,
      "feels_like": 25.6,
      "humidity": 98,
      "wind_kmh": 4.6,
      "rain_1h": 0.55,
      "condition": "Rain",
      "description": "light rain",
      "fetched_at": "2026-07-24 14:22",
      "risk_score": 1.0,
      "risk_level": "LOW",
      "alerts": [
        "💧 Flood conditions likely (98%)"
      ]
    },
    {
      "district": "Mon",
      "state": "Nagaland",
      "lat": 26.7167,
      "lon": 95.0,
      "temperature": 23.0,
      "feels_like": 23.9,
      "humidity": 98,
      "wind_kmh": 5.2,
      "rain_1h": 1.05,
      "condition": "Rain",
      "description": "moderate rain",
      "fetched_at": "2026-07-24 14:22",
      "risk_score": 1.0,
      "risk_level": "LOW",
      "alerts": [
        "💧 Flood conditions likely (98%)"
      ]
    },
    {
      "district": "Niuland",
      "state": "Nagaland",
      "lat": 25.7,
      "lon": 93.95,
      "temperature": 22.6,
      "feels_like": 23.4,
      "humidity": 94,
      "wind_kmh": 5.0,
      "rain_1h": 0.42,
      "condition": "Rain",
      "description": "light rain",
      "fetched_at": "2026-07-24 14:22",
      "risk_score": 1.0,
      "risk_level": "LOW",
      "alerts": [
        "💧 Flood conditions likely (94%)"
      ]
    },
    {
      "district": "Noklak",
      "state": "Nagaland",
      "lat": 26.4,
      "lon": 95.1,
      "temperature": 18.9,
      "feels_like": 19.4,
      "humidity": 98,
      "wind_kmh": 2.0,
      "rain_1h": 0.29,
      "condition": "Rain",
      "description": "light rain",
      "fetched_at": "2026-07-24 14:22",
      "risk_score": 1.0,
      "risk_level": "LOW",
      "alerts": [
        "💧 Flood conditions likely (98%)"
      ]
    },
    {
      "district": "Peren",
      "state": "Nagaland",
      "lat": 25.4833,
      "lon": 93.7333,
      "temperature": 18.5,
      "feels_like": 19.0,
      "humidity": 99,
      "wind_kmh": 6.0,
      "rain_1h": 0.3,
      "condition": "Rain",
      "description": "light rain",
      "fetched_at": "2026-07-24 14:22",
      "risk_score": 1.0,
      "risk_level": "LOW",
      "alerts": [
        "💧 Flood conditions likely (99%)"
      ]
    },
    {
      "district": "Phek",
      "state": "Nagaland",
      "lat": 25.6667,
      "lon": 94.4667,
      "temperature": 19.1,
      "feels_like": 19.7,
      "humidity": 98,
      "wind_kmh": 0.9,
      "rain_1h": 0.23,
      "condition": "Rain",
      "description": "light rain",
      "fetched_at": "2026-07-24 14:22",
      "risk_score": 1.0,
      "risk_level": "LOW",
      "alerts": [
        "💧 Flood conditions likely (98%)"
      ]
    },
    {
      "district": "Shamator",
      "state": "Nagaland",
      "lat": 26.5167,
      "lon": 94.8,
      "temperature": 20.5,
      "feels_like": 21.1,
      "humidity": 98,
      "wind_kmh": 4.5,
      "rain_1h": 0.51,
      "condition": "Rain",
      "description": "light rain",
      "fetched_at": "2026-07-24 14:22",
      "risk_score": 1.0,
      "risk_level": "LOW",
      "alerts": [
        "💧 Flood conditions likely (98%)"
      ]
    },
    {
      "district": "Keonjhar",
      "state": "Odisha",
      "lat": 21.6274,
      "lon": 85.5812,
      "temperature": 23.6,
      "feels_like": 24.4,
      "humidity": 91,
      "wind_kmh": 6.3,
      "rain_1h": 0.65,
      "condition": "Rain",
      "description": "light rain",
      "fetched_at": "2026-07-24 14:22",
      "risk_score": 1.0,
      "risk_level": "LOW",
      "alerts": [
        "💧 Flood conditions likely (91%)"
      ]
    },
    {
      "district": "Dungarpur",
      "state": "Rajasthan",
      "lat": 23.8333,
      "lon": 73.7167,
      "temperature": 25.2,
      "feels_like": 26.2,
      "humidity": 90,
      "wind_kmh": 15.6,
      "rain_1h": 0.13,
      "condition": "Rain",
      "description": "light rain",
      "fetched_at": "2026-07-24 14:22",
      "risk_score": 1.0,
      "risk_level": "LOW",
      "alerts": [
        "💧 Flood conditions likely (90%)"
      ]
    },
    {
      "district": "North Tripura",
      "state": "Tripura",
      "lat": 24.35,
      "lon": 92.0,
      "temperature": 24.9,
      "feels_like": 26.0,
      "humidity": 98,
      "wind_kmh": 7.6,
      "rain_1h": 0.1,
      "condition": "Rain",
      "description": "light rain",
      "fetched_at": "2026-07-24 14:22",
      "risk_score": 1.0,
      "risk_level": "LOW",
      "alerts": [
        "💧 Flood conditions likely (98%)"
      ]
    },
    {
      "district": "Unokoti",
      "state": "Tripura",
      "lat": 24.3167,
      "lon": 92.2333,
      "temperature": 24.8,
      "feels_like": 25.8,
      "humidity": 96,
      "wind_kmh": 5.9,
      "rain_1h": 0.15,
      "condition": "Rain",
      "description": "light rain",
      "fetched_at": "2026-07-24 14:22",
      "risk_score": 1.0,
      "risk_level": "LOW",
      "alerts": [
        "💧 Flood conditions likely (96%)"
      ]
    },
    {
      "district": "Paschim Bardhaman",
      "state": "West Bengal",
      "lat": 23.6,
      "lon": 87.0333,
      "temperature": 29.6,
      "feels_like": 34.9,
      "humidity": 73,
      "wind_kmh": 9.4,
      "rain_1h": 17.76,
      "condition": "Rain",
      "description": "very heavy rain",
      "fetched_at": "2026-07-24 14:23",
      "risk_score": 1.0,
      "risk_level": "LOW",
      "alerts": [
        "🌦 Moderate rain: 17.76 mm/h"
      ]
    },
    {
      "district": "Doda",
      "state": "Jammu & Kashmir",
      "lat": 33.1333,
      "lon": 75.55,
      "temperature": 24.1,
      "feels_like": 25.0,
      "humidity": 91,
      "wind_kmh": 5.2,
      "rain_1h": 0.17,
      "condition": "Rain",
      "description": "light rain",
      "fetched_at": "2026-07-24 14:23",
      "risk_score": 1.0,
      "risk_level": "LOW",
      "alerts": [
        "💧 Flood conditions likely (91%)"
      ]
    },
    {
      "district": "Pakyong",
      "state": "Sikkim",
      "lat": 27.21,
      "lon": 88.61,
      "temperature": 21.1,
      "feels_like": 21.8,
      "humidity": 97,
      "wind_kmh": 1.5,
      "rain_1h": 0.12,
      "condition": "Rain",
      "description": "light rain",
      "fetched_at": "2026-07-24 14:23",
      "risk_score": 1.0,
      "risk_level": "LOW",
      "alerts": [
        "💧 Flood conditions likely (97%)"
      ]
    },
    {
      "district": "Soreng",
      "state": "Sikkim",
      "lat": 27.15,
      "lon": 88.15,
      "temperature": 12.1,
      "feels_like": 11.9,
      "humidity": 98,
      "wind_kmh": 3.2,
      "rain_1h": 0.26,
      "condition": "Rain",
      "description": "light rain",
      "fetched_at": "2026-07-24 14:23",
      "risk_score": 1.0,
      "risk_level": "LOW",
      "alerts": [
        "💧 Flood conditions likely (98%)"
      ]
    },
    {
      "district": "Visakhapatnam",
      "state": "Andhra Pradesh",
      "lat": 17.6868,
      "lon": 83.2185,
      "temperature": 30.9,
      "feels_like": 34.3,
      "humidity": 58,
      "wind_kmh": 12.8,
      "rain_1h": 0,
      "condition": "Clouds",
      "description": "overcast clouds",
      "fetched_at": "2026-07-24 14:19",
      "risk_score": 0.0,
      "risk_level": "NORMAL",
      "alerts": []
    },
    {
      "district": "Vijayawada",
      "state": "Andhra Pradesh",
      "lat": 16.5062,
      "lon": 80.648,
      "temperature": 32.1,
      "feels_like": 33.2,
      "humidity": 44,
      "wind_kmh": 21.3,
      "rain_1h": 0,
      "condition": "Clouds",
      "description": "overcast clouds",
      "fetched_at": "2026-07-24 14:19",
      "risk_score": 0.0,
      "risk_level": "NORMAL",
      "alerts": []
    },
    {
      "district": "Guntur",
      "state": "Andhra Pradesh",
      "lat": 16.3067,
      "lon": 80.4365,
      "temperature": 32.0,
      "feels_like": 33.2,
      "humidity": 45,
      "wind_kmh": 19.4,
      "rain_1h": 0,
      "condition": "Clouds",
      "description": "overcast clouds",
      "fetched_at": "2026-07-24 14:19",
      "risk_score": 0.0,
      "risk_level": "NORMAL",
      "alerts": []
    },
    {
      "district": "Nellore",
      "state": "Andhra Pradesh",
      "lat": 14.4426,
      "lon": 79.9865,
      "temperature": 32.2,
      "feels_like": 35.3,
      "humidity": 52,
      "wind_kmh": 19.8,
      "rain_1h": 0,
      "condition": "Clouds",
      "description": "overcast clouds",
      "fetched_at": "2026-07-24 14:19",
      "risk_score": 0.0,
      "risk_level": "NORMAL",
      "alerts": []
    },
    {
      "district": "Kurnool",
      "state": "Andhra Pradesh",
      "lat": 15.8281,
      "lon": 78.0373,
      "temperature": 30.9,
      "feels_like": 31.4,
      "humidity": 44,
      "wind_kmh": 27.9,
      "rain_1h": 0,
      "condition": "Clouds",
      "description": "overcast clouds",
      "fetched_at": "2026-07-24 14:19",
      "risk_score": 0.0,
      "risk_level": "NORMAL",
      "alerts": []
    },
    {
      "district": "Kadapa",
      "state": "Andhra Pradesh",
      "lat": 14.4674,
      "lon": 78.8241,
      "temperature": 33.0,
      "feels_like": 33.5,
      "humidity": 39,
      "wind_kmh": 32.0,
      "rain_1h": 0,
      "condition": "Clouds",
      "description": "overcast clouds",
      "fetched_at": "2026-07-24 14:19",
      "risk_score": 0.0,
      "risk_level": "NORMAL",
      "alerts": []
    },
    {
      "district": "Tirupati",
      "state": "Andhra Pradesh",
      "lat": 13.6288,
      "lon": 79.4192,
      "temperature": 30.8,
      "feels_like": 34.6,
      "humidity": 61,
      "wind_kmh": 3.2,
      "rain_1h": 0.3,
      "condition": "Rain",
      "description": "light rain",
      "fetched_at": "2026-07-24 14:19",
      "risk_score": 0.0,
      "risk_level": "NORMAL",
      "alerts": []
    },
    {
      "district": "Anantapur",
      "state": "Andhra Pradesh",
      "lat": 14.6819,
      "lon": 77.6006,
      "temperature": 30.6,
      "feels_like": 31,
      "humidity": 44,
      "wind_kmh": 35.4,
      "rain_1h": 0,
      "condition": "Clouds",
      "description": "overcast clouds",
      "fetched_at": "2026-07-24 14:19",
      "risk_score": 0.0,
      "risk_level": "NORMAL",
      "alerts": []
    },
    {
      "district": "Rajahmundry",
      "state": "Andhra Pradesh",
      "lat": 17.0005,
      "lon": 81.804,
      "temperature": 30.6,
      "feels_like": 32.0,
      "humidity": 50,
      "wind_kmh": 17.1,
      "rain_1h": 0,
      "condition": "Clouds",
      "description": "overcast clouds",
      "fetched_at": "2026-07-24 14:19",
      "risk_score": 0.0,
      "risk_level": "NORMAL",
      "alerts": []
    },
    {
      "district": "Eluru",
      "state": "Andhra Pradesh",
      "lat": 16.7107,
      "lon": 81.0952,
      "temperature": 32.2,
      "feels_like": 33.1,
      "humidity": 43,
      "wind_kmh": 24.9,
      "rain_1h": 0,
      "condition": "Clouds",
      "description": "overcast clouds",
      "fetched_at": "2026-07-24 14:19",
      "risk_score": 0.0,
      "risk_level": "NORMAL",
      "alerts": []
    },
    {
      "district": "Ongole",
      "state": "Andhra Pradesh",
      "lat": 15.5057,
      "lon": 80.0499,
      "temperature": 34.0,
      "feels_like": 35.7,
      "humidity": 41,
      "wind_kmh": 13.6,
      "rain_1h": 0,
      "condition": "Clouds",
      "description": "overcast clouds",
      "fetched_at": "2026-07-24 14:19",
      "risk_score": 0.0,
      "risk_level": "NORMAL",
      "alerts": []
    },
    {
      "district": "Vizianagaram",
      "state": "Andhra Pradesh",
      "lat": 18.1066,
      "lon": 83.3956,
      "temperature": 31.0,
      "feels_like": 33.7,
      "humidity": 55,
      "wind_kmh": 9.2,
      "rain_1h": 0,
      "condition": "Clouds",
      "description": "overcast clouds",
      "fetched_at": "2026-07-24 14:19",
      "risk_score": 0.0,
      "risk_level": "NORMAL",
      "alerts": []
    },
    {
      "district": "Srikakulam",
      "state": "Andhra Pradesh",
      "lat": 18.2949,
      "lon": 83.8938,
      "temperature": 30.9,
      "feels_like": 34.4,
      "humidity": 59,
      "wind_kmh": 12.4,
      "rain_1h": 0,
      "condition": "Clouds",
      "description": "overcast clouds",
      "fetched_at": "2026-07-24 14:19",
      "risk_score": 0.0,
      "risk_level": "NORMAL",
      "alerts": []
    },
    {
      "district": "Chittoor",
      "state": "Andhra Pradesh",
      "lat": 13.2172,
      "lon": 79.1003,
      "temperature": 30.6,
      "feels_like": 32.7,
      "humidity": 54,
      "wind_kmh": 12.9,
      "rain_1h": 0.19,
      "condition": "Rain",
      "description": "light rain",
      "fetched_at": "2026-07-24 14:19",
      "risk_score": 0.0,
      "risk_level": "NORMAL",
      "alerts": []
    },
    {
      "district": "Hindupur",
      "state": "Andhra Pradesh",
      "lat": 13.829,
      "lon": 77.492,
      "temperature": 28.4,
      "feels_like": 29.4,
      "humidity": 55,
      "wind_kmh": 29.1,
      "rain_1h": 0,
      "condition": "Clouds",
      "description": "overcast clouds",
      "fetched_at": "2026-07-24 14:19",
      "risk_score": 0.0,
      "risk_level": "NORMAL",
      "alerts": []
    },
    {
      "district": "Machilipatnam",
      "state": "Andhra Pradesh",
      "lat": 16.1875,
      "lon": 81.1389,
      "temperature": 32.3,
      "feels_like": 34.3,
      "humidity": 47,
      "wind_kmh": 18.4,
      "rain_1h": 0,
      "condition": "Clouds",
      "description": "overcast clouds",
      "fetched_at": "2026-07-24 14:19",
      "risk_score": 0.0,
      "risk_level": "NORMAL",
      "alerts": []
    },
    {
      "district": "Bhimavaram",
      "state": "Andhra Pradesh",
      "lat": 16.5449,
      "lon": 81.5212,
      "temperature": 32.1,
      "feels_like": 33.1,
      "humidity": 43,
      "wind_kmh": 17.4,
      "rain_1h": 0,
      "condition": "Clouds",
      "description": "overcast clouds",
      "fetched_at": "2026-07-24 14:19",
      "risk_score": 0.0,
      "risk_level": "NORMAL",
      "alerts": []
    },
    {
      "district": "Tenali",
      "state": "Andhra Pradesh",
      "lat": 16.243,
      "lon": 80.64,
      "temperature": 30.5,
      "feels_like": 30.8,
      "humidity": 44,
      "wind_kmh": 20.7,
      "rain_1h": 0,
      "condition": "Clouds",
      "description": "overcast clouds",
      "fetched_at": "2026-07-24 14:19",
      "risk_score": 0.0,
      "risk_level": "NORMAL",
      "alerts": []
    },
    {
      "district": "Proddatur",
      "state": "Andhra Pradesh",
      "lat": 14.75,
      "lon": 78.55,
      "temperature": 32.5,
      "feels_like": 32.8,
      "humidity": 39,
      "wind_kmh": 35.5,
      "rain_1h": 0,
      "condition": "Clouds",
      "description": "overcast clouds",
      "fetched_at": "2026-07-24 14:19",
      "risk_score": 0.0,
      "risk_level": "NORMAL",
      "alerts": []
    },
    {
      "district": "Nandyal",
      "state": "Andhra Pradesh",
      "lat": 15.4786,
      "lon": 78.4836,
      "temperature": 32.2,
      "feels_like": 32.8,
      "humidity": 41,
      "wind_kmh": 25.8,
      "rain_1h": 0,
      "condition": "Clouds",
      "description": "overcast clouds",
      "fetched_at": "2026-07-24 14:19",
      "risk_score": 0.0,
      "risk_level": "NORMAL",
      "alerts": []
    },
    {
      "district": "Adoni",
      "state": "Andhra Pradesh",
      "lat": 15.627,
      "lon": 77.274,
      "temperature": 28.4,
      "feels_like": 28.6,
      "humidity": 47,
      "wind_kmh": 33.2,
      "rain_1h": 0,
      "condition": "Clouds",
      "description": "overcast clouds",
      "fetched_at": "2026-07-24 14:19",
      "risk_score": 0.0,
      "risk_level": "NORMAL",
      "alerts": []
    },
    {
      "district": "Madanapalle",
      "state": "Andhra Pradesh",
      "lat": 13.5503,
      "lon": 78.5022,
      "temperature": 27,
      "feels_like": 28.1,
      "humidity": 61,
      "wind_kmh": 19.8,
      "rain_1h": 0,
      "condition": "Clouds",
      "description": "overcast clouds",
      "fetched_at": "2026-07-24 14:19",
      "risk_score": 0.0,
      "risk_level": "NORMAL",
      "alerts": []
    },
    {
      "district": "Guntakal",
      "state": "Andhra Pradesh",
      "lat": 15.1667,
      "lon": 77.3667,
      "temperature": 29.4,
      "feels_like": 29.8,
      "humidity": 47,
      "wind_kmh": 33.3,
      "rain_1h": 0,
      "condition": "Clouds",
      "description": "overcast clouds",
      "fetched_at": "2026-07-24 14:19",
      "risk_score": 0.0,
      "risk_level": "NORMAL",
      "alerts": []
    },
    {
      "district": "Dharmavaram",
      "state": "Andhra Pradesh",
      "lat": 14.4136,
      "lon": 77.7183,
      "temperature": 30.9,
      "feels_like": 31.2,
      "humidity": 43,
      "wind_kmh": 34.1,
      "rain_1h": 0,
      "condition": "Clouds",
      "description": "overcast clouds",
      "fetched_at": "2026-07-24 14:19",
      "risk_score": 0.0,
      "risk_level": "NORMAL",
      "alerts": []
    },
    {
      "district": "Gudivada",
      "state": "Andhra Pradesh",
      "lat": 16.4348,
      "lon": 80.9942,
      "temperature": 32.2,
      "feels_like": 33.4,
      "humidity": 44,
      "wind_kmh": 20.9,
      "rain_1h": 0,
      "condition": "Clouds",
      "description": "overcast clouds",
      "fetched_at": "2026-07-24 14:19",
      "risk_score": 0.0,
      "risk_level": "NORMAL",
      "alerts": []
    },
    {
      "district": "Narasaraopet",
      "state": "Andhra Pradesh",
      "lat": 16.2345,
      "lon": 80.049,
      "temperature": 31.0,
      "feels_like": 32.3,
      "humidity": 48,
      "wind_kmh": 16.7,
      "rain_1h": 0,
      "condition": "Clouds",
      "description": "broken clouds",
      "fetched_at": "2026-07-24 14:19",
      "risk_score": 0.0,
      "risk_level": "NORMAL",
      "alerts": []
    },
    {
      "district": "Itanagar",
      "state": "Arunachal Pradesh",
      "lat": 27.0844,
      "lon": 93.6053,
      "temperature": 26.0,
      "feels_like": 26.0,
      "humidity": 92,
      "wind_kmh": 4.2,
      "rain_1h": 0,
      "condition": "Clouds",
      "description": "few clouds",
      "fetched_at": "2026-07-24 14:19",
      "risk_score": 0.0,
      "risk_level": "NORMAL",
      "alerts": []
    },
    {
      "district": "Naharlagun",
      "state": "Arunachal Pradesh",
      "lat": 27.1045,
      "lon": 93.6956,
      "temperature": 26.6,
      "feels_like": 26.6,
      "humidity": 93,
      "wind_kmh": 3.8,
      "rain_1h": 0,
      "condition": "Clouds",
      "description": "few clouds",
      "fetched_at": "2026-07-24 14:19",
      "risk_score": 0.0,
      "risk_level": "NORMAL",
      "alerts": []
    },
    {
      "district": "Pasighat",
      "state": "Arunachal Pradesh",
      "lat": 28.0667,
      "lon": 95.3333,
      "temperature": 27.0,
      "feels_like": 30.9,
      "humidity": 91,
      "wind_kmh": 3.4,
      "rain_1h": 0,
      "condition": "Clouds",
      "description": "overcast clouds",
      "fetched_at": "2026-07-24 14:19",
      "risk_score": 0.0,
      "risk_level": "NORMAL",
      "alerts": []
    },
    {
      "district": "Tawang",
      "state": "Arunachal Pradesh",
      "lat": 27.5859,
      "lon": 91.8594,
      "temperature": 11.5,
      "feels_like": 11.2,
      "humidity": 98,
      "wind_kmh": 2.2,
      "rain_1h": 0,
      "condition": "Clouds",
      "description": "overcast clouds",
      "fetched_at": "2026-07-24 14:19",
      "risk_score": 0.0,
      "risk_level": "NORMAL",
      "alerts": []
    },
    {
      "district": "Tezu",
      "state": "Arunachal Pradesh",
      "lat": 27.9167,
      "lon": 96.1667,
      "temperature": 25.4,
      "feels_like": 26.4,
      "humidity": 95,
      "wind_kmh": 5.9,
      "rain_1h": 0,
      "condition": "Clouds",
      "description": "scattered clouds",
      "fetched_at": "2026-07-24 14:19",
      "risk_score": 0.0,
      "risk_level": "NORMAL",
      "alerts": []
    },
    {
      "district": "Silchar",
      "state": "Assam",
      "lat": 24.8333,
      "lon": 92.7789,
      "temperature": 26.2,
      "feels_like": 26.2,
      "humidity": 89,
      "wind_kmh": 2.5,
      "rain_1h": 0.2,
      "condition": "Rain",
      "description": "light rain",
      "fetched_at": "2026-07-24 14:19",
      "risk_score": 0.0,
      "risk_level": "NORMAL",
      "alerts": []
    },
    {
      "district": "Dibrugarh",
      "state": "Assam",
      "lat": 27.4728,
      "lon": 94.912,
      "temperature": 28.8,
      "feels_like": 34.1,
      "humidity": 79,
      "wind_kmh": 3.7,
      "rain_1h": 0.21,
      "condition": "Rain",
      "description": "light rain",
      "fetched_at": "2026-07-24 14:19",
      "risk_score": 0.0,
      "risk_level": "NORMAL",
      "alerts": []
    },
    {
      "district": "Jorhat",
      "state": "Assam",
      "lat": 26.7509,
      "lon": 94.2037,
      "temperature": 27.7,
      "feels_like": 32.3,
      "humidity": 86,
      "wind_kmh": 1.7,
      "rain_1h": 1.42,
      "condition": "Rain",
      "description": "moderate rain",
      "fetched_at": "2026-07-24 14:19",
      "risk_score": 0.0,
      "risk_level": "NORMAL",
      "alerts": []
    },
    {
      "district": "Nagaon",
      "state": "Assam",
      "lat": 26.3483,
      "lon": 92.6836,
      "temperature": 28.0,
      "feels_like": 33.1,
      "humidity": 87,
      "wind_kmh": 3.1,
      "rain_1h": 0.81,
      "condition": "Rain",
      "description": "light rain",
      "fetched_at": "2026-07-24 14:19",
      "risk_score": 0.0,
      "risk_level": "NORMAL",
      "alerts": []
    },
    {
      "district": "Tinsukia",
      "state": "Assam",
      "lat": 27.4894,
      "lon": 95.3568,
      "temperature": 27.1,
      "feels_like": 30.8,
      "humidity": 88,
      "wind_kmh": 3.6,
      "rain_1h": 0,
      "condition": "Clear",
      "description": "clear sky",
      "fetched_at": "2026-07-24 14:19",
      "risk_score": 0.0,
      "risk_level": "NORMAL",
      "alerts": []
    },
    {
      "district": "Tezpur",
      "state": "Assam",
      "lat": 26.6338,
      "lon": 92.7928,
      "temperature": 27.7,
      "feels_like": 32.4,
      "humidity": 87,
      "wind_kmh": 3.0,
      "rain_1h": 0.38,
      "condition": "Rain",
      "description": "light rain",
      "fetched_at": "2026-07-24 14:19",
      "risk_score": 0.0,
      "risk_level": "NORMAL",
      "alerts": []
    },
    {
      "district": "Bongaigaon",
      "state": "Assam",
      "lat": 26.4775,
      "lon": 90.5581,
      "temperature": 28.3,
      "feels_like": 32.6,
      "humidity": 79,
      "wind_kmh": 3.1,
      "rain_1h": 0,
      "condition": "Clouds",
      "description": "overcast clouds",
      "fetched_at": "2026-07-24 14:19",
      "risk_score": 0.0,
      "risk_level": "NORMAL",
      "alerts": []
    },
    {
      "district": "Dhubri",
      "state": "Assam",
      "lat": 26.02,
      "lon": 89.98,
      "temperature": 28.9,
      "feels_like": 34.0,
      "humidity": 78,
      "wind_kmh": 3.7,
      "rain_1h": 0.14,
      "condition": "Rain",
      "description": "light rain",
      "fetched_at": "2026-07-24 14:19",
      "risk_score": 0.0,
      "risk_level": "NORMAL",
      "alerts": []
    },
    {
      "district": "Goalpara",
      "state": "Assam",
      "lat": 26.17,
      "lon": 90.62,
      "temperature": 28.6,
      "feels_like": 33.4,
      "humidity": 79,
      "wind_kmh": 5.5,
      "rain_1h": 0,
      "condition": "Clouds",
      "description": "overcast clouds",
      "fetched_at": "2026-07-24 14:19",
      "risk_score": 0.0,
      "risk_level": "NORMAL",
      "alerts": []
    },
    {
      "district": "Lakhimpur",
      "state": "Assam",
      "lat": 27.2353,
      "lon": 94.1013,
      "temperature": 28.1,
      "feels_like": 32.8,
      "humidity": 82,
      "wind_kmh": 3.8,
      "rain_1h": 0,
      "condition": "Clouds",
      "description": "few clouds",
      "fetched_at": "2026-07-24 14:19",
      "risk_score": 0.0,
      "risk_level": "NORMAL",
      "alerts": []
    },
    {
      "district": "Sivasagar",
      "state": "Assam",
      "lat": 26.98,
      "lon": 94.64,
      "temperature": 28.2,
      "feels_like": 33.1,
      "humidity": 83,
      "wind_kmh": 7.5,
      "rain_1h": 0.53,
      "condition": "Rain",
      "description": "light rain",
      "fetched_at": "2026-07-24 14:19",
      "risk_score": 0.0,
      "risk_level": "NORMAL",
      "alerts": []
    },
    {
      "district": "Golaghat",
      "state": "Assam",
      "lat": 26.52,
      "lon": 93.97,
      "temperature": 27.6,
      "feels_like": 31.9,
      "humidity": 86,
      "wind_kmh": 2.8,
      "rain_1h": 0,
      "condition": "Clouds",
      "description": "broken clouds",
      "fetched_at": "2026-07-24 14:19",
      "risk_score": 0.0,
      "risk_level": "NORMAL",
      "alerts": []
    },
    {
      "district": "Patna",
      "state": "Bihar",
      "lat": 25.5941,
      "lon": 85.1376,
      "temperature": 32.1,
      "feels_like": 37.9,
      "humidity": 62,
      "wind_kmh": 10.8,
      "rain_1h": 0,
      "condition": "Clouds",
      "description": "overcast clouds",
      "fetched_at": "2026-07-24 14:19",
      "risk_score": 0.0,
      "risk_level": "NORMAL",
      "alerts": []
    },
    {
      "district": "Gaya",
      "state": "Bihar",
      "lat": 24.7955,
      "lon": 85.0,
      "temperature": 31.4,
      "feels_like": 37.6,
      "humidity": 67,
      "wind_kmh": 6.3,
      "rain_1h": 0.81,
      "condition": "Rain",
      "description": "light rain",
      "fetched_at": "2026-07-24 14:19",
      "risk_score": 0.0,
      "risk_level": "NORMAL",
      "alerts": []
    },
    {
      "district": "Bhagalpur",
      "state": "Bihar",
      "lat": 25.2425,
      "lon": 86.9842,
      "temperature": 30.1,
      "feels_like": 35.6,
      "humidity": 71,
      "wind_kmh": 11.8,
      "rain_1h": 0.19,
      "condition": "Rain",
      "description": "light rain",
      "fetched_at": "2026-07-24 14:19",
      "risk_score": 0.0,
      "risk_level": "NORMAL",
      "alerts": []
    },
    {
      "district": "Muzaffarpur",
      "state": "Bihar",
      "lat": 26.1197,
      "lon": 85.391,
      "temperature": 31.8,
      "feels_like": 36.9,
      "humidity": 61,
      "wind_kmh": 13.0,
      "rain_1h": 0,
      "condition": "Clouds",
      "description": "overcast clouds",
      "fetched_at": "2026-07-24 14:19",
      "risk_score": 0.0,
      "risk_level": "NORMAL",
      "alerts": []
    },
    {
      "district": "Purnia",
      "state": "Bihar",
      "lat": 25.7771,
      "lon": 87.4753,
      "temperature": 29.1,
      "feels_like": 33.9,
      "humidity": 75,
      "wind_kmh": 12.9,
      "rain_1h": 0,
      "condition": "Clouds",
      "description": "overcast clouds",
      "fetched_at": "2026-07-24 14:19",
      "risk_score": 0.0,
      "risk_level": "NORMAL",
      "alerts": []
    },
    {
      "district": "Darbhanga",
      "state": "Bihar",
      "lat": 26.1542,
      "lon": 85.8918,
      "temperature": 31.2,
      "feels_like": 36.1,
      "humidity": 63,
      "wind_kmh": 17.4,
      "rain_1h": 0,
      "condition": "Clouds",
      "description": "broken clouds",
      "fetched_at": "2026-07-24 14:19",
      "risk_score": 0.0,
      "risk_level": "NORMAL",
      "alerts": []
    },
    {
      "district": "Arrah",
      "state": "Bihar",
      "lat": 25.5561,
      "lon": 84.6642,
      "temperature": 31.9,
      "feels_like": 37.9,
      "humidity": 63,
      "wind_kmh": 9.3,
      "rain_1h": 3.16,
      "condition": "Rain",
      "description": "moderate rain",
      "fetched_at": "2026-07-24 14:19",
      "risk_score": 0.0,
      "risk_level": "NORMAL",
      "alerts": []
    },
    {
      "district": "Begusarai",
      "state": "Bihar",
      "lat": 25.4182,
      "lon": 86.1272,
      "temperature": 31.0,
      "feels_like": 36.9,
      "humidity": 68,
      "wind_kmh": 16.8,
      "rain_1h": 0,
      "condition": "Clouds",
      "description": "overcast clouds",
      "fetched_at": "2026-07-24 14:19",
      "risk_score": 0.0,
      "risk_level": "NORMAL",
      "alerts": []
    },
    {
      "district": "Katihar",
      "state": "Bihar",
      "lat": 25.5372,
      "lon": 87.5714,
      "temperature": 29.3,
      "feels_like": 34.3,
      "humidity": 74,
      "wind_kmh": 12.5,
      "rain_1h": 0,
      "condition": "Clouds",
      "description": "scattered clouds",
      "fetched_at": "2026-07-24 14:19",
      "risk_score": 0.0,
      "risk_level": "NORMAL",
      "alerts": []
    },
    {
      "district": "Munger",
      "state": "Bihar",
      "lat": 25.3758,
      "lon": 86.473,
      "temperature": 30.2,
      "feels_like": 35.7,
      "humidity": 71,
      "wind_kmh": 14.9,
      "rain_1h": 0.12,
      "condition": "Rain",
      "description": "light rain",
      "fetched_at": "2026-07-24 14:19",
      "risk_score": 0.0,
      "risk_level": "NORMAL",
      "alerts": []
    },
    {
      "district": "Chhapra",
      "state": "Bihar",
      "lat": 25.7831,
      "lon": 84.7378,
      "temperature": 31.6,
      "feels_like": 37.2,
      "humidity": 64,
      "wind_kmh": 7.2,
      "rain_1h": 2.05,
      "condition": "Rain",
      "description": "moderate rain",
      "fetched_at": "2026-07-24 14:19",
      "risk_score": 0.0,
      "risk_level": "NORMAL",
      "alerts": []
    },
    {
      "district": "Saharsa",
      "state": "Bihar",
      "lat": 25.8833,
      "lon": 86.6,
      "temperature": 30.0,
      "feels_like": 35.0,
      "humidity": 70,
      "wind_kmh": 10.5,
      "rain_1h": 0,
      "condition": "Clouds",
      "description": "overcast clouds",
      "fetched_at": "2026-07-24 14:19",
      "risk_score": 0.0,
      "risk_level": "NORMAL",
      "alerts": []
    },
    {
      "district": "Sitamarhi",
      "state": "Bihar",
      "lat": 26.5912,
      "lon": 85.4899,
      "temperature": 32.1,
      "feels_like": 37.0,
      "humidity": 59,
      "wind_kmh": 15.0,
      "rain_1h": 0,
      "condition": "Clouds",
      "description": "overcast clouds",
      "fetched_at": "2026-07-24 14:19",
      "risk_score": 0.0,
      "risk_level": "NORMAL",
      "alerts": []
    },
    {
      "district": "Vaishali",
      "state": "Bihar",
      "lat": 25.6906,
      "lon": 85.1831,
      "temperature": 31.9,
      "feels_like": 37.8,
      "humidity": 63,
      "wind_kmh": 11.3,
      "rain_1h": 0,
      "condition": "Clouds",
      "description": "overcast clouds",
      "fetched_at": "2026-07-24 14:19",
      "risk_score": 0.0,
      "risk_level": "NORMAL",
      "alerts": []
    },
    {
      "district": "Samastipur",
      "state": "Bihar",
      "lat": 25.85,
      "lon": 85.78,
      "temperature": 31.5,
      "feels_like": 36.8,
      "humidity": 63,
      "wind_kmh": 12.5,
      "rain_1h": 0,
      "condition": "Clouds",
      "description": "overcast clouds",
      "fetched_at": "2026-07-24 14:19",
      "risk_score": 0.0,
      "risk_level": "NORMAL",
      "alerts": []
    },
    {
      "district": "Jehanabad",
      "state": "Bihar",
      "lat": 25.2139,
      "lon": 84.9908,
      "temperature": 32.6,
      "feels_like": 38.9,
      "humidity": 61,
      "wind_kmh": 7.7,
      "rain_1h": 0,
      "condition": "Clouds",
      "description": "overcast clouds",
      "fetched_at": "2026-07-24 14:19",
      "risk_score": 0.0,
      "risk_level": "NORMAL",
      "alerts": []
    },
    {
      "district": "Nawada",
      "state": "Bihar",
      "lat": 24.8869,
      "lon": 85.535,
      "temperature": 31.1,
      "feels_like": 36.8,
      "humidity": 67,
      "wind_kmh": 6.4,
      "rain_1h": 0.4,
      "condition": "Rain",
      "description": "light rain",
      "fetched_at": "2026-07-24 14:19",
      "risk_score": 0.0,
      "risk_level": "NORMAL",
      "alerts": []
    },
    {
      "district": "Aurangabad",
      "state": "Bihar",
      "lat": 24.7522,
      "lon": 84.3736,
      "temperature": 31.1,
      "feels_like": 36.9,
      "humidity": 67,
      "wind_kmh": 6.9,
      "rain_1h": 0.91,
      "condition": "Rain",
      "description": "light rain",
      "fetched_at": "2026-07-24 14:19",
      "risk_score": 0.0,
      "risk_level": "NORMAL",
      "alerts": []
    },
    {
      "district": "Rohtas",
      "state": "Bihar",
      "lat": 24.95,
      "lon": 83.8,
      "temperature": 31.3,
      "feels_like": 37.1,
      "humidity": 66,
      "wind_kmh": 4.1,
      "rain_1h": 0.29,
      "condition": "Rain",
      "description": "light rain",
      "fetched_at": "2026-07-24 14:19",
      "risk_score": 0.0,
      "risk_level": "NORMAL",
      "alerts": []
    },
    {
      "district": "Buxar",
      "state": "Bihar",
      "lat": 25.5639,
      "lon": 83.9733,
      "temperature": 32.6,
      "feels_like": 38.9,
      "humidity": 61,
      "wind_kmh": 6.4,
      "rain_1h": 0.65,
      "condition": "Rain",
      "description": "light rain",
      "fetched_at": "2026-07-24 14:19",
      "risk_score": 0.0,
      "risk_level": "NORMAL",
      "alerts": []
    },
    {
      "district": "Raipur",
      "state": "Chhattisgarh",
      "lat": 21.2514,
      "lon": 81.6296,
      "temperature": 28.0,
      "feels_like": 31.3,
      "humidity": 75,
      "wind_kmh": 19.8,
      "rain_1h": 0,
      "condition": "Clouds",
      "description": "few clouds",
      "fetched_at": "2026-07-24 14:19",
      "risk_score": 0.0,
      "risk_level": "NORMAL",
      "alerts": []
    },
    {
      "district": "Bhilai",
      "state": "Chhattisgarh",
      "lat": 21.1938,
      "lon": 81.3509,
      "temperature": 27.7,
      "feels_like": 30.8,
      "humidity": 76,
      "wind_kmh": 20.1,
      "rain_1h": 0.29,
      "condition": "Rain",
      "description": "light rain",
      "fetched_at": "2026-07-24 14:19",
      "risk_score": 0.0,
      "risk_level": "NORMAL",
      "alerts": []
    },
    {
      "district": "Bilaspur",
      "state": "Chhattisgarh",
      "lat": 22.0796,
      "lon": 82.1391,
      "temperature": 28.8,
      "feels_like": 32.1,
      "humidity": 69,
      "wind_kmh": 17.2,
      "rain_1h": 0,
      "condition": "Clouds",
      "description": "scattered clouds",
      "fetched_at": "2026-07-24 14:19",
      "risk_score": 0.0,
      "risk_level": "NORMAL",
      "alerts": []
    },
    {
      "district": "Korba",
      "state": "Chhattisgarh",
      "lat": 22.3595,
      "lon": 82.7501,
      "temperature": 27.6,
      "feels_like": 30.5,
      "humidity": 76,
      "wind_kmh": 8.4,
      "rain_1h": 0,
      "condition": "Clouds",
      "description": "broken clouds",
      "fetched_at": "2026-07-24 14:19",
      "risk_score": 0.0,
      "risk_level": "NORMAL",
      "alerts": []
    },
    {
      "district": "Rajnandgaon",
      "state": "Chhattisgarh",
      "lat": 21.0972,
      "lon": 81.0289,
      "temperature": 27.0,
      "feels_like": 29.8,
      "humidity": 80,
      "wind_kmh": 20.0,
      "rain_1h": 1.03,
      "condition": "Rain",
      "description": "moderate rain",
      "fetched_at": "2026-07-24 14:19",
      "risk_score": 0.0,
      "risk_level": "NORMAL",
      "alerts": []
    },
    {
      "district": "Jagdalpur",
      "state": "Chhattisgarh",
      "lat": 19.0728,
      "lon": 82.031,
      "temperature": 24.5,
      "feels_like": 25.1,
      "humidity": 82,
      "wind_kmh": 10.2,
      "rain_1h": 0,
      "condition": "Clouds",
      "description": "overcast clouds",
      "fetched_at": "2026-07-24 14:19",
      "risk_score": 0.0,
      "risk_level": "NORMAL",
      "alerts": []
    },
    {
      "district": "Ambikapur",
      "state": "Chhattisgarh",
      "lat": 23.1196,
      "lon": 83.1953,
      "temperature": 25,
      "feels_like": 25.8,
      "humidity": 86,
      "wind_kmh": 11.6,
      "rain_1h": 3.05,
      "condition": "Rain",
      "description": "moderate rain",
      "fetched_at": "2026-07-24 14:19",
      "risk_score": 0.0,
      "risk_level": "NORMAL",
      "alerts": []
    },
    {
      "district": "Durg",
      "state": "Chhattisgarh",
      "lat": 21.1904,
      "lon": 81.2849,
      "temperature": 27.6,
      "feels_like": 30.8,
      "humidity": 77,
      "wind_kmh": 20.2,
      "rain_1h": 0.55,
      "condition": "Rain",
      "description": "light rain",
      "fetched_at": "2026-07-24 14:19",
      "risk_score": 0.0,
      "risk_level": "NORMAL",
      "alerts": []
    },
    {
      "district": "Raigarh",
      "state": "Chhattisgarh",
      "lat": 21.8974,
      "lon": 83.395,
      "temperature": 27.8,
      "feels_like": 30.7,
      "humidity": 74,
      "wind_kmh": 7.7,
      "rain_1h": 0,
      "condition": "Clouds",
      "description": "overcast clouds",
      "fetched_at": "2026-07-24 14:19",
      "risk_score": 0.0,
      "risk_level": "NORMAL",
      "alerts": []
    },
    {
      "district": "Kanker",
      "state": "Chhattisgarh",
      "lat": 20.2667,
      "lon": 81.4833,
      "temperature": 25.6,
      "feels_like": 26.4,
      "humidity": 82,
      "wind_kmh": 13.4,
      "rain_1h": 0,
      "condition": "Clouds",
      "description": "few clouds",
      "fetched_at": "2026-07-24 14:19",
      "risk_score": 0.0,
      "risk_level": "NORMAL",
      "alerts": []
    },
    {
      "district": "Panaji",
      "state": "Goa",
      "lat": 15.4909,
      "lon": 73.8278,
      "temperature": 27.1,
      "feels_like": 30.4,
      "humidity": 86,
      "wind_kmh": 22.0,
      "rain_1h": 0,
      "condition": "Clouds",
      "description": "overcast clouds",
      "fetched_at": "2026-07-24 14:19",
      "risk_score": 0.0,
      "risk_level": "NORMAL",
      "alerts": []
    },
    {
      "district": "Margao",
      "state": "Goa",
      "lat": 15.2832,
      "lon": 73.9862,
      "temperature": 26.5,
      "feels_like": 26.5,
      "humidity": 88,
      "wind_kmh": 13.4,
      "rain_1h": 0,
      "condition": "Clouds",
      "description": "overcast clouds",
      "fetched_at": "2026-07-24 14:19",
      "risk_score": 0.0,
      "risk_level": "NORMAL",
      "alerts": []
    },
    {
      "district": "Ahmedabad",
      "state": "Gujarat",
      "lat": 23.0225,
      "lon": 72.5714,
      "temperature": 26.5,
      "feels_like": 26.5,
      "humidity": 89,
      "wind_kmh": 20.6,
      "rain_1h": 2.08,
      "condition": "Rain",
      "description": "moderate rain",
      "fetched_at": "2026-07-24 14:19",
      "risk_score": 0.0,
      "risk_level": "NORMAL",
      "alerts": []
    },
    {
      "district": "Rajkot",
      "state": "Gujarat",
      "lat": 22.3039,
      "lon": 70.8022,
      "temperature": 26.7,
      "feels_like": 29.8,
      "humidity": 87,
      "wind_kmh": 32.4,
      "rain_1h": 0.16,
      "condition": "Rain",
      "description": "light rain",
      "fetched_at": "2026-07-24 14:19",
      "risk_score": 0.0,
      "risk_level": "NORMAL",
      "alerts": []
    },
    {
      "district": "Bhavnagar",
      "state": "Gujarat",
      "lat": 21.7645,
      "lon": 72.1519,
      "temperature": 25.7,
      "feels_like": 26.7,
      "humidity": 89,
      "wind_kmh": 22.2,
      "rain_1h": 0.34,
      "condition": "Rain",
      "description": "light rain",
      "fetched_at": "2026-07-24 14:19",
      "risk_score": 0.0,
      "risk_level": "NORMAL",
      "alerts": []
    },
    {
      "district": "Jamnagar",
      "state": "Gujarat",
      "lat": 22.4707,
      "lon": 70.0577,
      "temperature": 27.8,
      "feels_like": 32,
      "humidity": 82,
      "wind_kmh": 42.0,
      "rain_1h": 0,
      "condition": "Clouds",
      "description": "overcast clouds",
      "fetched_at": "2026-07-24 14:19",
      "risk_score": 0.0,
      "risk_level": "NORMAL",
      "alerts": []
    },
    {
      "district": "Navsari",
      "state": "Gujarat",
      "lat": 20.9467,
      "lon": 72.952,
      "temperature": 25.9,
      "feels_like": 26.9,
      "humidity": 89,
      "wind_kmh": 27.3,
      "rain_1h": 0.73,
      "condition": "Rain",
      "description": "light rain",
      "fetched_at": "2026-07-24 14:19",
      "risk_score": 0.0,
      "risk_level": "NORMAL",
      "alerts": []
    },
    {
      "district": "Surendranagar",
      "state": "Gujarat",
      "lat": 22.7278,
      "lon": 71.6479,
      "temperature": 26.5,
      "feels_like": 26.5,
      "humidity": 86,
      "wind_kmh": 35.3,
      "rain_1h": 0,
      "condition": "Clouds",
      "description": "overcast clouds",
      "fetched_at": "2026-07-24 14:19",
      "risk_score": 0.0,
      "risk_level": "NORMAL",
      "alerts": []
    },
    {
      "district": "Porbandar",
      "state": "Gujarat",
      "lat": 21.6425,
      "lon": 69.6093,
      "temperature": 27.8,
      "feels_like": 32.1,
      "humidity": 84,
      "wind_kmh": 43.8,
      "rain_1h": 0,
      "condition": "Clouds",
      "description": "overcast clouds",
      "fetched_at": "2026-07-24 14:19",
      "risk_score": 0.0,
      "risk_level": "NORMAL",
      "alerts": []
    },
    {
      "district": "Valsad",
      "state": "Gujarat",
      "lat": 20.6136,
      "lon": 72.9282,
      "temperature": 26.2,
      "feels_like": 26.2,
      "humidity": 88,
      "wind_kmh": 26.5,
      "rain_1h": 1.43,
      "condition": "Rain",
      "description": "moderate rain",
      "fetched_at": "2026-07-24 14:19",
      "risk_score": 0.0,
      "risk_level": "NORMAL",
      "alerts": []
    },
    {
      "district": "Morbi",
      "state": "Gujarat",
      "lat": 22.8173,
      "lon": 70.837,
      "temperature": 26.9,
      "feels_like": 30.1,
      "humidity": 86,
      "wind_kmh": 33.6,
      "rain_1h": 0.49,
      "condition": "Rain",
      "description": "light rain",
      "fetched_at": "2026-07-24 14:19",
      "risk_score": 0.0,
      "risk_level": "NORMAL",
      "alerts": []
    },
    {
      "district": "Kutch",
      "state": "Gujarat",
      "lat": 23.7337,
      "lon": 69.8597,
      "temperature": 28.4,
      "feels_like": 32.6,
      "humidity": 77,
      "wind_kmh": 35.1,
      "rain_1h": 0.42,
      "condition": "Rain",
      "description": "light rain",
      "fetched_at": "2026-07-24 14:19",
      "risk_score": 0.0,
      "risk_level": "NORMAL",
      "alerts": []
    },
    {
      "district": "Faridabad",
      "state": "Haryana",
      "lat": 28.4089,
      "lon": 77.3178,
      "temperature": 32.4,
      "feels_like": 37.3,
      "humidity": 58,
      "wind_kmh": 12.4,
      "rain_1h": 0,
      "condition": "Clouds",
      "description": "overcast clouds",
      "fetched_at": "2026-07-24 14:19",
      "risk_score": 0.0,
      "risk_level": "NORMAL",
      "alerts": []
    },
    {
      "district": "Gurugram",
      "state": "Haryana",
      "lat": 28.4595,
      "lon": 77.0266,
      "temperature": 33.3,
      "feels_like": 37.8,
      "humidity": 53,
      "wind_kmh": 16.0,
      "rain_1h": 0,
      "condition": "Clouds",
      "description": "overcast clouds",
      "fetched_at": "2026-07-24 14:19",
      "risk_score": 0.0,
      "risk_level": "NORMAL",
      "alerts": []
    },
    {
      "district": "Panipat",
      "state": "Haryana",
      "lat": 29.3909,
      "lon": 76.9635,
      "temperature": 31.0,
      "feels_like": 35.8,
      "humidity": 64,
      "wind_kmh": 13.9,
      "rain_1h": 0,
      "condition": "Clouds",
      "description": "broken clouds",
      "fetched_at": "2026-07-24 14:19",
      "risk_score": 0.0,
      "risk_level": "NORMAL",
      "alerts": []
    },
    {
      "district": "Ambala",
      "state": "Haryana",
      "lat": 30.3782,
      "lon": 76.7767,
      "temperature": 32.9,
      "feels_like": 37.2,
      "humidity": 54,
      "wind_kmh": 11.0,
      "rain_1h": 0,
      "condition": "Clouds",
      "description": "overcast clouds",
      "fetched_at": "2026-07-24 14:19",
      "risk_score": 0.0,
      "risk_level": "NORMAL",
      "alerts": []
    },
    {
      "district": "Yamunanagar",
      "state": "Haryana",
      "lat": 30.129,
      "lon": 77.2674,
      "temperature": 31.1,
      "feels_like": 35.9,
      "humidity": 63,
      "wind_kmh": 12.5,
      "rain_1h": 0,
      "condition": "Clouds",
      "description": "overcast clouds",
      "fetched_at": "2026-07-24 14:19",
      "risk_score": 0.0,
      "risk_level": "NORMAL",
      "alerts": []
    },
    {
      "district": "Rohtak",
      "state": "Haryana",
      "lat": 28.8955,
      "lon": 76.6066,
      "temperature": 31.8,
      "feels_like": 36.6,
      "humidity": 60,
      "wind_kmh": 15.4,
      "rain_1h": 0,
      "condition": "Clouds",
      "description": "overcast clouds",
      "fetched_at": "2026-07-24 14:19",
      "risk_score": 0.0,
      "risk_level": "NORMAL",
      "alerts": []
    },
    {
      "district": "Hisar",
      "state": "Haryana",
      "lat": 29.1492,
      "lon": 75.7217,
      "temperature": 33.1,
      "feels_like": 37.8,
      "humidity": 54,
      "wind_kmh": 17.5,
      "rain_1h": 0,
      "condition": "Clouds",
      "description": "overcast clouds",
      "fetched_at": "2026-07-24 14:19",
      "risk_score": 0.0,
      "risk_level": "NORMAL",
      "alerts": []
    },
    {
      "district": "Karnal",
      "state": "Haryana",
      "lat": 29.6857,
      "lon": 76.9905,
      "temperature": 31.0,
      "feels_like": 36.0,
      "humidity": 64,
      "wind_kmh": 14.4,
      "rain_1h": 0,
      "condition": "Clouds",
      "description": "scattered clouds",
      "fetched_at": "2026-07-24 14:19",
      "risk_score": 0.0,
      "risk_level": "NORMAL",
      "alerts": []
    },
    {
      "district": "Sonipat",
      "state": "Haryana",
      "lat": 28.9931,
      "lon": 77.0151,
      "temperature": 31.0,
      "feels_like": 36.1,
      "humidity": 65,
      "wind_kmh": 14.9,
      "rain_1h": 0,
      "condition": "Clouds",
      "description": "overcast clouds",
      "fetched_at": "2026-07-24 14:19",
      "risk_score": 0.0,
      "risk_level": "NORMAL",
      "alerts": []
    },
    {
      "district": "Panchkula",
      "state": "Haryana",
      "lat": 30.6942,
      "lon": 76.8606,
      "temperature": 30.7,
      "feels_like": 34.4,
      "humidity": 61,
      "wind_kmh": 9.9,
      "rain_1h": 0,
      "condition": "Clouds",
      "description": "few clouds",
      "fetched_at": "2026-07-24 14:19",
      "risk_score": 0.0,
      "risk_level": "NORMAL",
      "alerts": []
    },
    {
      "district": "Bhiwani",
      "state": "Haryana",
      "lat": 28.793,
      "lon": 76.132,
      "temperature": 32.2,
      "feels_like": 36.9,
      "humidity": 58,
      "wind_kmh": 15.7,
      "rain_1h": 0,
      "condition": "Clouds",
      "description": "broken clouds",
      "fetched_at": "2026-07-24 14:19",
      "risk_score": 0.0,
      "risk_level": "NORMAL",
      "alerts": []
    },
    {
      "district": "Sirsa",
      "state": "Haryana",
      "lat": 29.533,
      "lon": 75.028,
      "temperature": 34.4,
      "feels_like": 38.8,
      "humidity": 49,
      "wind_kmh": 15.7,
      "rain_1h": 0,
      "condition": "Clouds",
      "description": "overcast clouds",
      "fetched_at": "2026-07-24 14:19",
      "risk_score": 0.0,
      "risk_level": "NORMAL",
      "alerts": []
    },
    {
      "district": "Rewari",
      "state": "Haryana",
      "lat": 28.1927,
      "lon": 76.6172,
      "temperature": 33.0,
      "feels_like": 37.2,
      "humidity": 53,
      "wind_kmh": 15.6,
      "rain_1h": 0,
      "condition": "Clouds",
      "description": "overcast clouds",
      "fetched_at": "2026-07-24 14:19",
      "risk_score": 0.0,
      "risk_level": "NORMAL",
      "alerts": []
    },
    {
      "district": "Jhajjar",
      "state": "Haryana",
      "lat": 28.6082,
      "lon": 76.6548,
      "temperature": 32.9,
      "feels_like": 37.2,
      "humidity": 54,
      "wind_kmh": 17.2,
      "rain_1h": 0,
      "condition": "Clouds",
      "description": "overcast clouds",
      "fetched_at": "2026-07-24 14:19",
      "risk_score": 0.0,
      "risk_level": "NORMAL",
      "alerts": []
    },
    {
      "district": "Kaithal",
      "state": "Haryana",
      "lat": 29.8013,
      "lon": 76.3996,
      "temperature": 33.0,
      "feels_like": 37.2,
      "humidity": 53,
      "wind_kmh": 16.5,
      "rain_1h": 0.13,
      "condition": "Rain",
      "description": "light rain",
      "fetched_at": "2026-07-24 14:19",
      "risk_score": 0.0,
      "risk_level": "NORMAL",
      "alerts": []
    },
    {
      "district": "Mandi",
      "state": "Himachal Pradesh",
      "lat": 31.7083,
      "lon": 76.9316,
      "temperature": 23.6,
      "feels_like": 24.1,
      "humidity": 76,
      "wind_kmh": 3.0,
      "rain_1h": 0,
      "condition": "Clouds",
      "description": "broken clouds",
      "fetched_at": "2026-07-24 14:19",
      "risk_score": 0.0,
      "risk_level": "NORMAL",
      "alerts": []
    },
    {
      "district": "Solan",
      "state": "Himachal Pradesh",
      "lat": 30.9045,
      "lon": 77.0967,
      "temperature": 19.9,
      "feels_like": 20.2,
      "humidity": 88,
      "wind_kmh": 5.4,
      "rain_1h": 0.1,
      "condition": "Rain",
      "description": "light rain",
      "fetched_at": "2026-07-24 14:20",
      "risk_score": 0.0,
      "risk_level": "NORMAL",
      "alerts": []
    },
    {
      "district": "Hamirpur",
      "state": "Himachal Pradesh",
      "lat": 31.6862,
      "lon": 76.5215,
      "temperature": 26.5,
      "feels_like": 26.5,
      "humidity": 68,
      "wind_kmh": 7.9,
      "rain_1h": 0,
      "condition": "Clear",
      "description": "clear sky",
      "fetched_at": "2026-07-24 14:20",
      "risk_score": 0.0,
      "risk_level": "NORMAL",
      "alerts": []
    },
    {
      "district": "Una",
      "state": "Himachal Pradesh",
      "lat": 31.4685,
      "lon": 76.2693,
      "temperature": 30.1,
      "feels_like": 33.5,
      "humidity": 62,
      "wind_kmh": 8.8,
      "rain_1h": 0,
      "condition": "Clear",
      "description": "clear sky",
      "fetched_at": "2026-07-24 14:20",
      "risk_score": 0.0,
      "risk_level": "NORMAL",
      "alerts": []
    },
    {
      "district": "Bilaspur",
      "state": "Himachal Pradesh",
      "lat": 31.34,
      "lon": 76.76,
      "temperature": 28.5,
      "feels_like": 31.5,
      "humidity": 69,
      "wind_kmh": 0.3,
      "rain_1h": 0,
      "condition": "Clear",
      "description": "clear sky",
      "fetched_at": "2026-07-24 14:20",
      "risk_score": 0.0,
      "risk_level": "NORMAL",
      "alerts": []
    },
    {
      "district": "Kinnaur",
      "state": "Himachal Pradesh",
      "lat": 31.5885,
      "lon": 78.4459,
      "temperature": 19.9,
      "feels_like": 20.0,
      "humidity": 79,
      "wind_kmh": 13.6,
      "rain_1h": 0,
      "condition": "Clouds",
      "description": "broken clouds",
      "fetched_at": "2026-07-24 14:20",
      "risk_score": 0.0,
      "risk_level": "NORMAL",
      "alerts": []
    },
    {
      "district": "Lahaul Spiti",
      "state": "Himachal Pradesh",
      "lat": 32.595,
      "lon": 77.195,
      "temperature": 6.8,
      "feels_like": 5.8,
      "humidity": 88,
      "wind_kmh": 6.3,
      "rain_1h": 0.12,
      "condition": "Rain",
      "description": "light rain",
      "fetched_at": "2026-07-24 14:20",
      "risk_score": 0.0,
      "risk_level": "NORMAL",
      "alerts": []
    },
    {
      "district": "Sirmaur",
      "state": "Himachal Pradesh",
      "lat": 30.559,
      "lon": 77.465,
      "temperature": 25.3,
      "feels_like": 25.8,
      "humidity": 74,
      "wind_kmh": 4.2,
      "rain_1h": 0,
      "condition": "Clouds",
      "description": "broken clouds",
      "fetched_at": "2026-07-24 14:20",
      "risk_score": 0.0,
      "risk_level": "NORMAL",
      "alerts": []
    },
    {
      "district": "Ranchi",
      "state": "Jharkhand",
      "lat": 23.3441,
      "lon": 85.3096,
      "temperature": 25.4,
      "feels_like": 26.2,
      "humidity": 84,
      "wind_kmh": 8.1,
      "rain_1h": 2.05,
      "condition": "Rain",
      "description": "moderate rain",
      "fetched_at": "2026-07-24 14:20",
      "risk_score": 0.0,
      "risk_level": "NORMAL",
      "alerts": []
    },
    {
      "district": "Jamshedpur",
      "state": "Jharkhand",
      "lat": 22.8046,
      "lon": 86.2029,
      "temperature": 27.8,
      "feels_like": 31.8,
      "humidity": 82,
      "wind_kmh": 10.1,
      "rain_1h": 0.65,
      "condition": "Rain",
      "description": "light rain",
      "fetched_at": "2026-07-24 14:20",
      "risk_score": 0.0,
      "risk_level": "NORMAL",
      "alerts": []
    },
    {
      "district": "Dhanbad",
      "state": "Jharkhand",
      "lat": 23.7957,
      "lon": 86.4304,
      "temperature": 29.5,
      "feels_like": 33.9,
      "humidity": 70,
      "wind_kmh": 4.0,
      "rain_1h": 0.48,
      "condition": "Rain",
      "description": "light rain",
      "fetched_at": "2026-07-24 14:20",
      "risk_score": 0.0,
      "risk_level": "NORMAL",
      "alerts": []
    },
    {
      "district": "Bokaro",
      "state": "Jharkhand",
      "lat": 23.6693,
      "lon": 86.1511,
      "temperature": 28.8,
      "feels_like": 33.5,
      "humidity": 76,
      "wind_kmh": 3.2,
      "rain_1h": 3.16,
      "condition": "Rain",
      "description": "moderate rain",
      "fetched_at": "2026-07-24 14:20",
      "risk_score": 0.0,
      "risk_level": "NORMAL",
      "alerts": []
    },
    {
      "district": "Deoghar",
      "state": "Jharkhand",
      "lat": 24.4853,
      "lon": 86.695,
      "temperature": 28.4,
      "feels_like": 32.6,
      "humidity": 78,
      "wind_kmh": 11.2,
      "rain_1h": 1.86,
      "condition": "Rain",
      "description": "moderate rain",
      "fetched_at": "2026-07-24 14:20",
      "risk_score": 0.0,
      "risk_level": "NORMAL",
      "alerts": []
    },
    {
      "district": "Hazaribagh",
      "state": "Jharkhand",
      "lat": 23.9925,
      "lon": 85.3637,
      "temperature": 24.9,
      "feels_like": 25.7,
      "humidity": 86,
      "wind_kmh": 7.2,
      "rain_1h": 3.52,
      "condition": "Rain",
      "description": "moderate rain",
      "fetched_at": "2026-07-24 14:20",
      "risk_score": 0.0,
      "risk_level": "NORMAL",
      "alerts": []
    },
    {
      "district": "Giridih",
      "state": "Jharkhand",
      "lat": 24.1853,
      "lon": 86.3005,
      "temperature": 28.6,
      "feels_like": 33.2,
      "humidity": 77,
      "wind_kmh": 5.2,
      "rain_1h": 0,
      "condition": "Clouds",
      "description": "overcast clouds",
      "fetched_at": "2026-07-24 14:20",
      "risk_score": 0.0,
      "risk_level": "NORMAL",
      "alerts": []
    },
    {
      "district": "Ramgarh",
      "state": "Jharkhand",
      "lat": 23.6326,
      "lon": 85.5122,
      "temperature": 28.1,
      "feels_like": 32.3,
      "humidity": 79,
      "wind_kmh": 5.6,
      "rain_1h": 0,
      "condition": "Clouds",
      "description": "broken clouds",
      "fetched_at": "2026-07-24 14:20",
      "risk_score": 0.0,
      "risk_level": "NORMAL",
      "alerts": []
    },
    {
      "district": "Dumka",
      "state": "Jharkhand",
      "lat": 24.2672,
      "lon": 87.2494,
      "temperature": 28.8,
      "feels_like": 33.9,
      "humidity": 79,
      "wind_kmh": 7.6,
      "rain_1h": 0.13,
      "condition": "Rain",
      "description": "light rain",
      "fetched_at": "2026-07-24 14:20",
      "risk_score": 0.0,
      "risk_level": "NORMAL",
      "alerts": []
    },
    {
      "district": "Chaibasa",
      "state": "Jharkhand",
      "lat": 22.5523,
      "lon": 85.805,
      "temperature": 26.7,
      "feels_like": 29.3,
      "humidity": 83,
      "wind_kmh": 9.2,
      "rain_1h": 0,
      "condition": "Clouds",
      "description": "overcast clouds",
      "fetched_at": "2026-07-24 14:20",
      "risk_score": 0.0,
      "risk_level": "NORMAL",
      "alerts": []
    },
    {
      "district": "Bengaluru",
      "state": "Karnataka",
      "lat": 12.9716,
      "lon": 77.5946,
      "temperature": 25.8,
      "feels_like": 26.3,
      "humidity": 69,
      "wind_kmh": 20.9,
      "rain_1h": 0.28,
      "condition": "Rain",
      "description": "light rain",
      "fetched_at": "2026-07-24 14:20",
      "risk_score": 0.0,
      "risk_level": "NORMAL",
      "alerts": []
    },
    {
      "district": "Mysuru",
      "state": "Karnataka",
      "lat": 12.2958,
      "lon": 76.6394,
      "temperature": 26.0,
      "feels_like": 26.0,
      "humidity": 68,
      "wind_kmh": 19.0,
      "rain_1h": 0,
      "condition": "Clouds",
      "description": "overcast clouds",
      "fetched_at": "2026-07-24 14:20",
      "risk_score": 0.0,
      "risk_level": "NORMAL",
      "alerts": []
    },
    {
      "district": "Mangaluru",
      "state": "Karnataka",
      "lat": 12.9141,
      "lon": 74.856,
      "temperature": 27.1,
      "feels_like": 29.7,
      "humidity": 77,
      "wind_kmh": 8.8,
      "rain_1h": 0.65,
      "condition": "Rain",
      "description": "light rain",
      "fetched_at": "2026-07-24 14:20",
      "risk_score": 0.0,
      "risk_level": "NORMAL",
      "alerts": []
    },
    {
      "district": "Hubli",
      "state": "Karnataka",
      "lat": 15.3647,
      "lon": 75.124,
      "temperature": 23.5,
      "feels_like": 24.0,
      "humidity": 79,
      "wind_kmh": 29.6,
      "rain_1h": 0,
      "condition": "Clouds",
      "description": "broken clouds",
      "fetched_at": "2026-07-24 14:20",
      "risk_score": 0.0,
      "risk_level": "NORMAL",
      "alerts": []
    },
    {
      "district": "Belagavi",
      "state": "Karnataka",
      "lat": 15.8497,
      "lon": 74.4977,
      "temperature": 21.7,
      "feels_like": 22.1,
      "humidity": 82,
      "wind_kmh": 26.4,
      "rain_1h": 0,
      "condition": "Clouds",
      "description": "overcast clouds",
      "fetched_at": "2026-07-24 14:20",
      "risk_score": 0.0,
      "risk_level": "NORMAL",
      "alerts": []
    },
    {
      "district": "Davanagere",
      "state": "Karnataka",
      "lat": 14.4644,
      "lon": 75.9218,
      "temperature": 25.6,
      "feels_like": 25.9,
      "humidity": 65,
      "wind_kmh": 26.2,
      "rain_1h": 0,
      "condition": "Clouds",
      "description": "overcast clouds",
      "fetched_at": "2026-07-24 14:20",
      "risk_score": 0.0,
      "risk_level": "NORMAL",
      "alerts": []
    },
    {
      "district": "Ballari",
      "state": "Karnataka",
      "lat": 15.1394,
      "lon": 76.9214,
      "temperature": 28.6,
      "feels_like": 29.1,
      "humidity": 50,
      "wind_kmh": 31.7,
      "rain_1h": 0,
      "condition": "Clouds",
      "description": "overcast clouds",
      "fetched_at": "2026-07-24 14:20",
      "risk_score": 0.0,
      "risk_level": "NORMAL",
      "alerts": []
    },
    {
      "district": "Vijayapura",
      "state": "Karnataka",
      "lat": 16.8302,
      "lon": 75.71,
      "temperature": 25.1,
      "feels_like": 25.4,
      "humidity": 66,
      "wind_kmh": 37.0,
      "rain_1h": 0,
      "condition": "Clouds",
      "description": "broken clouds",
      "fetched_at": "2026-07-24 14:20",
      "risk_score": 0.0,
      "risk_level": "NORMAL",
      "alerts": []
    },
    {
      "district": "Shivamogga",
      "state": "Karnataka",
      "lat": 13.9299,
      "lon": 75.5681,
      "temperature": 24.1,
      "feels_like": 24.5,
      "humidity": 73,
      "wind_kmh": 18.8,
      "rain_1h": 0,
      "condition": "Clouds",
      "description": "overcast clouds",
      "fetched_at": "2026-07-24 14:20",
      "risk_score": 0.0,
      "risk_level": "NORMAL",
      "alerts": []
    },
    {
      "district": "Tumkur",
      "state": "Karnataka",
      "lat": 13.3379,
      "lon": 77.1173,
      "temperature": 27.0,
      "feels_like": 28.1,
      "humidity": 61,
      "wind_kmh": 26.0,
      "rain_1h": 0,
      "condition": "Clouds",
      "description": "overcast clouds",
      "fetched_at": "2026-07-24 14:20",
      "risk_score": 0.0,
      "risk_level": "NORMAL",
      "alerts": []
    },
    {
      "district": "Raichur",
      "state": "Karnataka",
      "lat": 16.212,
      "lon": 77.3439,
      "temperature": 29.1,
      "feels_like": 29.8,
      "humidity": 50,
      "wind_kmh": 33.4,
      "rain_1h": 0,
      "condition": "Clouds",
      "description": "overcast clouds",
      "fetched_at": "2026-07-24 14:20",
      "risk_score": 0.0,
      "risk_level": "NORMAL",
      "alerts": []
    },
    {
      "district": "Bidar",
      "state": "Karnataka",
      "lat": 17.9104,
      "lon": 77.5199,
      "temperature": 25.8,
      "feels_like": 26.1,
      "humidity": 64,
      "wind_kmh": 32.8,
      "rain_1h": 0,
      "condition": "Clouds",
      "description": "overcast clouds",
      "fetched_at": "2026-07-24 14:20",
      "risk_score": 0.0,
      "risk_level": "NORMAL",
      "alerts": []
    },
    {
      "district": "Kalaburagi",
      "state": "Karnataka",
      "lat": 17.3297,
      "lon": 76.8343,
      "temperature": 27.2,
      "feels_like": 28.3,
      "humidity": 60,
      "wind_kmh": 33.3,
      "rain_1h": 0,
      "condition": "Clouds",
      "description": "overcast clouds",
      "fetched_at": "2026-07-24 14:20",
      "risk_score": 0.0,
      "risk_level": "NORMAL",
      "alerts": []
    },
    {
      "district": "Hassan",
      "state": "Karnataka",
      "lat": 13.0033,
      "lon": 76.1004,
      "temperature": 22.8,
      "feels_like": 23.2,
      "humidity": 79,
      "wind_kmh": 18.4,
      "rain_1h": 0,
      "condition": "Clouds",
      "description": "overcast clouds",
      "fetched_at": "2026-07-24 14:20",
      "risk_score": 0.0,
      "risk_level": "NORMAL",
      "alerts": []
    },
    {
      "district": "Udupi",
      "state": "Karnataka",
      "lat": 13.3409,
      "lon": 74.7421,
      "temperature": 26.6,
      "feels_like": 26.6,
      "humidity": 80,
      "wind_kmh": 9.1,
      "rain_1h": 0.3,
      "condition": "Rain",
      "description": "light rain",
      "fetched_at": "2026-07-24 14:20",
      "risk_score": 0.0,
      "risk_level": "NORMAL",
      "alerts": []
    },
    {
      "district": "Chitradurga",
      "state": "Karnataka",
      "lat": 14.2251,
      "lon": 76.398,
      "temperature": 25.5,
      "feels_like": 25.7,
      "humidity": 64,
      "wind_kmh": 30.3,
      "rain_1h": 0,
      "condition": "Clouds",
      "description": "overcast clouds",
      "fetched_at": "2026-07-24 14:20",
      "risk_score": 0.0,
      "risk_level": "NORMAL",
      "alerts": []
    },
    {
      "district": "Kolar",
      "state": "Karnataka",
      "lat": 13.1367,
      "lon": 78.1295,
      "temperature": 27.3,
      "feels_like": 28.3,
      "humidity": 58,
      "wind_kmh": 22.0,
      "rain_1h": 0,
      "condition": "Clouds",
      "description": "overcast clouds",
      "fetched_at": "2026-07-24 14:20",
      "risk_score": 0.0,
      "risk_level": "NORMAL",
      "alerts": []
    },
    {
      "district": "Mandya",
      "state": "Karnataka",
      "lat": 12.5218,
      "lon": 76.8951,
      "temperature": 27.6,
      "feels_like": 29.1,
      "humidity": 62,
      "wind_kmh": 24.3,
      "rain_1h": 0,
      "condition": "Clouds",
      "description": "overcast clouds",
      "fetched_at": "2026-07-24 14:20",
      "risk_score": 0.0,
      "risk_level": "NORMAL",
      "alerts": []
    },
    {
      "district": "Chikkamagaluru",
      "state": "Karnataka",
      "lat": 13.3161,
      "lon": 75.772,
      "temperature": 21.4,
      "feels_like": 21.7,
      "humidity": 81,
      "wind_kmh": 12.7,
      "rain_1h": 0,
      "condition": "Clouds",
      "description": "broken clouds",
      "fetched_at": "2026-07-24 14:20",
      "risk_score": 0.0,
      "risk_level": "NORMAL",
      "alerts": []
    },
    {
      "district": "Koppal",
      "state": "Karnataka",
      "lat": 15.3508,
      "lon": 76.1549,
      "temperature": 26.7,
      "feels_like": 26.7,
      "humidity": 62,
      "wind_kmh": 35.0,
      "rain_1h": 0,
      "condition": "Clouds",
      "description": "broken clouds",
      "fetched_at": "2026-07-24 14:20",
      "risk_score": 0.0,
      "risk_level": "NORMAL",
      "alerts": []
    },
    {
      "district": "Thiruvananthapuram",
      "state": "Kerala",
      "lat": 8.5241,
      "lon": 76.9366,
      "temperature": 26.4,
      "feels_like": 26.4,
      "humidity": 78,
      "wind_kmh": 17.2,
      "rain_1h": 0,
      "condition": "Clouds",
      "description": "overcast clouds",
      "fetched_at": "2026-07-24 14:20",
      "risk_score": 0.0,
      "risk_level": "NORMAL",
      "alerts": []
    },
    {
      "district": "Kochi",
      "state": "Kerala",
      "lat": 9.9312,
      "lon": 76.2673,
      "temperature": 26.8,
      "feels_like": 29.5,
      "humidity": 82,
      "wind_kmh": 12.1,
      "rain_1h": 0,
      "condition": "Clouds",
      "description": "broken clouds",
      "fetched_at": "2026-07-24 14:20",
      "risk_score": 0.0,
      "risk_level": "NORMAL",
      "alerts": []
    },
    {
      "district": "Kozhikode",
      "state": "Kerala",
      "lat": 11.2588,
      "lon": 75.7804,
      "temperature": 26.6,
      "feels_like": 26.6,
      "humidity": 80,
      "wind_kmh": 13.0,
      "rain_1h": 0,
      "condition": "Clouds",
      "description": "overcast clouds",
      "fetched_at": "2026-07-24 14:20",
      "risk_score": 0.0,
      "risk_level": "NORMAL",
      "alerts": []
    },
    {
      "district": "Thrissur",
      "state": "Kerala",
      "lat": 10.5276,
      "lon": 76.2144,
      "temperature": 26.2,
      "feels_like": 26.2,
      "humidity": 82,
      "wind_kmh": 5.1,
      "rain_1h": 0,
      "condition": "Clouds",
      "description": "overcast clouds",
      "fetched_at": "2026-07-24 14:20",
      "risk_score": 0.0,
      "risk_level": "NORMAL",
      "alerts": []
    },
    {
      "district": "Kollam",
      "state": "Kerala",
      "lat": 8.8932,
      "lon": 76.6141,
      "temperature": 26.2,
      "feels_like": 26.2,
      "humidity": 83,
      "wind_kmh": 16.7,
      "rain_1h": 0,
      "condition": "Clouds",
      "description": "broken clouds",
      "fetched_at": "2026-07-24 14:20",
      "risk_score": 0.0,
      "risk_level": "NORMAL",
      "alerts": []
    },
    {
      "district": "Kannur",
      "state": "Kerala",
      "lat": 11.8745,
      "lon": 75.3704,
      "temperature": 26.7,
      "feels_like": 26.7,
      "humidity": 78,
      "wind_kmh": 9.0,
      "rain_1h": 0,
      "condition": "Clouds",
      "description": "broken clouds",
      "fetched_at": "2026-07-24 14:20",
      "risk_score": 0.0,
      "risk_level": "NORMAL",
      "alerts": []
    },